[
  {
    "name": "AALST",
    "name_clean": "Aalst",
    "url": "https://nl.wikipedia.org/wiki/Station_Aalst",
    "lat": 50.94270851475151,
    "lon": 4.039138555526733,
    "region": "VLG",
    "province": "VOV",
    "city": "41002"
  },
  {
    "name": "AALST-KERREBROEK",
    "name_clean": "Aalst-Kerrebroek",
    "url": "https://nl.wikipedia.org/wiki/Station_Aalst-Kerrebroek",
    "lat": 50.94827859340891,
    "lon": 4.024842381477356,
    "region": "VLG",
    "province": "VOV",
    "city": "41002"
  },
  {
    "name": "AALTER",
    "name_clean": "Aalter",
    "url": "https://nl.wikipedia.org/wiki/Station_Aalter",
    "lat": 51.09222631836963,
    "lon": 3.4495460987091064,
    "region": "VLG",
    "province": "VOV",
    "city": "44084"
  },
  {
    "name": "AARSCHOT",
    "name_clean": "Aarschot",
    "url": "https://nl.wikipedia.org/wiki/Station_Aarschot",
    "lat": 50.984410428176645,
    "lon": 4.824038743972778,
    "region": "VLG",
    "province": "VBR",
    "city": "24001"
  },
  {
    "name": "AARSELE",
    "name_clean": "Aarsele",
    "url": "https://nl.wikipedia.org/wiki/Station_Aarsele",
    "lat": 50.984610304234984,
    "lon": 3.4180946769309912,
    "region": "VLG",
    "province": "VWV",
    "city": "37015"
  },
  {
    "name": "ACREN",
    "name_clean": "Acren",
    "url": "https://nl.wikipedia.org/wiki/Station_Acren",
    "lat": 50.732852976720785,
    "lon": 3.8470976221233286,
    "region": "WAL",
    "province": "WHT",
    "city": "55023"
  },
  {
    "name": "AISEAU",
    "name_clean": "Aiseau",
    "url": "https://nl.wikipedia.org/wiki/Station_Aiseau",
    "lat": 50.42945589699721,
    "lon": 4.5851461216807365,
    "region": "WAL",
    "province": "WHT",
    "city": "52074"
  },
  {
    "name": "ALKEN",
    "name_clean": "Alken",
    "url": "https://nl.wikipedia.org/wiki/Station_Alken",
    "lat": 50.886700282719886,
    "lon": 5.292540192604065,
    "region": "VLG",
    "province": "VLI",
    "city": "73001"
  },
  {
    "name": "AMAY",
    "name_clean": "Amay",
    "url": "https://nl.wikipedia.org/wiki/Station_Amay",
    "lat": 50.5461356041705,
    "lon": 5.32063364982605,
    "region": "WAL",
    "province": "WLG",
    "city": "61003"
  },
  {
    "name": "AMPSIN",
    "name_clean": "Ampsin",
    "url": "https://nl.wikipedia.org/wiki/Station_Ampsin",
    "lat": 50.539170798463985,
    "lon": 5.28967022895813,
    "region": "WAL",
    "province": "WLG",
    "city": "61003"
  },
  {
    "name": "ANDENNE",
    "name_clean": "Andenne",
    "url": "https://nl.wikipedia.org/wiki/Station_Andenne",
    "lat": 50.496681292705425,
    "lon": 5.09516716003418,
    "region": "WAL",
    "province": "WNA",
    "city": "92003"
  },
  {
    "name": "ANGLEUR",
    "name_clean": "Angleur",
    "url": "https://nl.wikipedia.org/wiki/Station_Angleur",
    "lat": 50.61316394959347,
    "lon": 5.599835515022278,
    "region": "WAL",
    "province": "WLG",
    "city": "62063"
  },
  {
    "name": "ANS",
    "name_clean": "Ans",
    "url": "https://nl.wikipedia.org/wiki/Station_Ans",
    "lat": 50.66135360375893,
    "lon": 5.509852766990662,
    "region": "WAL",
    "province": "WLG",
    "city": "62003"
  },
  {
    "name": "ANSEREMME",
    "name_clean": "Anseremme",
    "url": "https://nl.wikipedia.org/wiki/Station_Anseremme",
    "lat": 50.237447790244566,
    "lon": 4.904998540878296,
    "region": "WAL",
    "province": "WNA",
    "city": "91034"
  },
  {
    "name": "ANTOING",
    "name_clean": "Antoing",
    "url": "https://nl.wikipedia.org/wiki/Station_Antoing",
    "lat": 50.5697441105418,
    "lon": 3.451160453259945,
    "region": "WAL",
    "province": "WHT",
    "city": "57003"
  },
  {
    "name": "ANTWERPEN-BERCHEM",
    "name_clean": "Antwerpen-Berchem",
    "url": "https://nl.wikipedia.org/wiki/Station_Antwerpen-Berchem",
    "lat": 51.200320973839474,
    "lon": 4.432756039531341,
    "region": "VLG",
    "province": "VAN",
    "city": "11002"
  },
  {
    "name": "ANTWERPEN-CAAL",
    "name_clean": "Antwerpen-Centraal",
    "url": "https://nl.wikipedia.org/wiki/Station_Antwerpen-Centraal",
    "lat": 51.217193366795016,
    "lon": 4.421444535255432,
    "region": "VLG",
    "province": "VAN",
    "city": "11002"
  },
  {
    "name": "ANTWERPEN-LUCHTBAL",
    "name_clean": "Antwerpen-Luchtbal",
    "url": "https://nl.wikipedia.org/wiki/Station_Antwerpen-Luchtbal",
    "lat": 51.24484212621014,
    "lon": 4.425022602081299,
    "region": "VLG",
    "province": "VAN",
    "city": "11002"
  },
  {
    "name": "ANTWERPEN-NOORDERDOKKEN",
    "name_clean": "Antwerpen-Noorderdokken",
    "url": "https://nl.wikipedia.org/wiki/Station_Antwerpen-Noorderdokken",
    "lat": 51.26164294782822,
    "lon": 4.427908658981323,
    "region": "VLG",
    "province": "VAN",
    "city": "11002"
  },
  {
    "name": "ANTWERPEN-ZUID",
    "name_clean": "Antwerpen-Zuid",
    "url": "https://nl.wikipedia.org/wiki/Station_Antwerpen-Zuid",
    "lat": 51.1972501556601,
    "lon": 4.391741752624512,
    "region": "VLG",
    "province": "VAN",
    "city": "11002"
  },
  {
    "name": "ANZEGEM",
    "name_clean": "Anzegem",
    "url": "https://nl.wikipedia.org/wiki/Station_Anzegem",
    "lat": 50.8261667569915,
    "lon": 3.4949716553092003,
    "region": "VLG",
    "province": "VWV",
    "city": "34002"
  },
  {
    "name": "APPELTERRE",
    "name_clean": "Appelterre",
    "url": "https://nl.wikipedia.org/wiki/Station_Appelterre",
    "lat": 50.813558301875666,
    "lon": 3.9729201793670654,
    "region": "VLG",
    "province": "VOV",
    "city": "41048"
  },
  {
    "name": "ARCADES",
    "name_clean": "Arcaden",
    "url": "https://nl.wikipedia.org/wiki/Station_Arcaden",
    "lat": 50.80995852949809,
    "lon": 4.398479461669922,
    "region": "BRU",
    "city": "21017"
  },
  {
    "name": "ARCHENNES",
    "name_clean": "Archennes",
    "url": "https://nl.wikipedia.org/wiki/Station_Archennes",
    "lat": 50.75433317418784,
    "lon": 4.662207327783108,
    "region": "WAL",
    "province": "WBR",
    "city": "25037"
  },
  {
    "name": "ARLON",
    "name_clean": "Arlon",
    "url": "https://nl.wikipedia.org/wiki/Station_Arlon",
    "lat": 49.68040990618189,
    "lon": 5.80952525138855,
    "region": "WAL",
    "province": "WLX",
    "city": "81001"
  },
  {
    "name": "ASSE",
    "name_clean": "Asse",
    "url": "https://nl.wikipedia.org/wiki/Station_Asse",
    "lat": 50.90659498151951,
    "lon": 4.2080748081207275,
    "region": "VLG",
    "province": "VBR",
    "city": "23002"
  },
  {
    "name": "ASSESSE",
    "name_clean": "Assesse",
    "url": "https://nl.wikipedia.org/wiki/Station_Assesse",
    "lat": 50.3681380540555,
    "lon": 5.022833347320557,
    "region": "WAL",
    "province": "WNA",
    "city": "92006"
  },
  {
    "name": "ATH",
    "name_clean": "Ath",
    "url": "https://nl.wikipedia.org/wiki/Station_Ath",
    "lat": 50.62720678721879,
    "lon": 3.777269124984741,
    "region": "WAL",
    "province": "WHT",
    "city": "51004"
  },
  {
    "name": "ATHUS",
    "name_clean": "Athus",
    "url": "https://nl.wikipedia.org/wiki/Station_Athus",
    "lat": 49.56394197238468,
    "lon": 5.829046368598938,
    "region": "WAL",
    "province": "WLX",
    "city": "81004"
  },
  {
    "name": "AUBANGE",
    "name_clean": "Aubange",
    "url": "https://nl.wikipedia.org/wiki/Station_Aubange",
    "lat": 49.56375678635053,
    "lon": 5.799131657107637,
    "region": "WAL",
    "province": "WLX",
    "city": "81004"
  },
  {
    "name": "AUVELAIS",
    "name_clean": "Auvelais",
    "url": "https://nl.wikipedia.org/wiki/Station_Auvelais",
    "lat": 50.448965103222555,
    "lon": 4.631370306015015,
    "region": "WAL",
    "province": "WNA",
    "city": "92137"
  },
  {
    "name": "AYE",
    "name_clean": "Aye",
    "url": "https://nl.wikipedia.org/wiki/Station_Aye",
    "lat": 50.224133179647716,
    "lon": 5.3010910749435425,
    "region": "WAL",
    "province": "WLX",
    "city": "83034"
  },
  {
    "name": "AYWAILLE",
    "name_clean": "Aywaille",
    "url": "https://nl.wikipedia.org/wiki/Station_Aywaille",
    "lat": 50.47292139995581,
    "lon": 5.672823786735535,
    "region": "WAL",
    "province": "WLG",
    "city": "62009"
  },
  {
    "name": "BAASRODE-ZUID",
    "name_clean": "Baasrode-Zuid",
    "url": "https://nl.wikipedia.org/wiki/Station_Baasrode-Zuid",
    "lat": 51.0193453247434,
    "lon": 4.153850935399532,
    "region": "VLG",
    "province": "VOV",
    "city": "42011"
  },
  {
    "name": "BALEGEM-DORP",
    "name_clean": "Balegem-Dorp",
    "url": "https://nl.wikipedia.org/wiki/Station_Balegem-Dorp",
    "lat": 50.919075579832494,
    "lon": 3.7919622659683228,
    "region": "VLG",
    "province": "VOV",
    "city": "44052"
  },
  {
    "name": "BALEGEM-ZUID",
    "name_clean": "Balegem-Zuid",
    "url": "https://nl.wikipedia.org/wiki/Station_Balegem-Zuid",
    "lat": 50.900217528508655,
    "lon": 3.806004173042311,
    "region": "VLG",
    "province": "VOV",
    "city": "44052"
  },
  {
    "name": "BALEN",
    "name_clean": "Balen",
    "url": "https://nl.wikipedia.org/wiki/Station_Balen",
    "lat": 51.168824396704736,
    "lon": 5.165526798566816,
    "region": "VLG",
    "province": "VAN",
    "city": "13003"
  },
  {
    "name": "BAMBRUGGE",
    "name_clean": "Bambrugge",
    "url": "https://nl.wikipedia.org/wiki/Station_Bambrugge",
    "lat": 50.91366434925854,
    "lon": 3.9357930421829224,
    "region": "VLG",
    "province": "VOV",
    "city": "41082"
  },
  {
    "name": "BARVAUX",
    "name_clean": "Barvaux",
    "url": "https://nl.wikipedia.org/wiki/Station_Barvaux",
    "lat": 50.349068257943905,
    "lon": 5.50136246914451,
    "region": "WAL",
    "province": "WLX",
    "city": "83012"
  },
  {
    "name": "BAS-OHA",
    "name_clean": "Bas-Oha",
    "url": "https://nl.wikipedia.org/wiki/Station_Bas-Oha",
    "lat": 50.523116805885934,
    "lon": 5.1919251680374146,
    "region": "WAL",
    "province": "WLG",
    "city": "61072"
  },
  {
    "name": "BASSE-WAVRE",
    "name_clean": "Basse-Wavre",
    "url": "https://nl.wikipedia.org/wiki/Station_Basse-Wavre",
    "lat": 50.7245538774402,
    "lon": 4.622073769569397,
    "region": "WAL",
    "province": "WBR",
    "city": "25112"
  },
  {
    "name": "BEAURAING",
    "name_clean": "Beauraing",
    "url": "https://nl.wikipedia.org/wiki/Station_Beauraing",
    "lat": 50.11431560194288,
    "lon": 4.956774227321148,
    "region": "WAL",
    "province": "WNA",
    "city": "91013"
  },
  {
    "name": "BEERNEM",
    "name_clean": "Beernem",
    "url": "https://nl.wikipedia.org/wiki/Station_Beernem",
    "lat": 51.12813045059407,
    "lon": 3.329136770416085,
    "region": "VLG",
    "province": "VWV",
    "city": "31003"
  },
  {
    "name": "BEERSEL",
    "name_clean": "Beersel",
    "url": "https://nl.wikipedia.org/wiki/Station_Beersel",
    "lat": 50.76698315572021,
    "lon": 4.302901136044284,
    "region": "VLG",
    "province": "VBR",
    "city": "23003"
  },
  {
    "name": "BEERVELDE",
    "name_clean": "Beervelde",
    "url": "https://nl.wikipedia.org/wiki/Station_Beervelde",
    "lat": 51.08698351062171,
    "lon": 3.8793540000915527,
    "region": "VLG",
    "province": "VOV",
    "city": "44034"
  },
  {
    "name": "BEGIJNENDIJK",
    "name_clean": "Begijnendijk",
    "url": "https://nl.wikipedia.org/wiki/Station_Begijnendijk",
    "lat": 51.02207722063556,
    "lon": 4.80048009882762,
    "region": "VLG",
    "province": "VBR",
    "city": "24007"
  },
  {
    "name": "BEIGNEE",
    "name_clean": "Beignée",
    "url": "https://nl.wikipedia.org/wiki/Station_Beignée",
    "lat": 50.33363257417771,
    "lon": 4.406654499471188,
    "region": "WAL",
    "province": "WHT",
    "city": "56086"
  },
  {
    "name": "BELLEM",
    "name_clean": "Bellem",
    "url": "https://nl.wikipedia.org/wiki/Station_Bellem",
    "lat": 51.08371069117834,
    "lon": 3.4877666002633987,
    "region": "VLG",
    "province": "VOV",
    "city": "44084"
  },
  {
    "name": "BELSELE",
    "name_clean": "Belsele",
    "url": "https://nl.wikipedia.org/wiki/Station_Belsele",
    "lat": 51.150436764177414,
    "lon": 4.08742368221283,
    "region": "VLG",
    "province": "VOV",
    "city": "46021"
  },
  {
    "name": "BERINGEN",
    "name_clean": "Beringen",
    "url": "https://nl.wikipedia.org/wiki/Station_Beringen",
    "lat": 51.05036163730931,
    "lon": 5.236503481864929,
    "region": "VLG",
    "province": "VLI",
    "city": "71004"
  },
  {
    "name": "BERLAAR",
    "name_clean": "Berlaar",
    "url": "https://nl.wikipedia.org/wiki/Station_Berlaar",
    "lat": 51.113665507888264,
    "lon": 4.638400585311842,
    "region": "VLG",
    "province": "VAN",
    "city": "12002"
  },
  {
    "name": "BERTRIX",
    "name_clean": "Bertrix",
    "url": "https://nl.wikipedia.org/wiki/Station_Bertrix",
    "lat": 49.852843726330875,
    "lon": 5.267526928467078,
    "region": "WAL",
    "province": "WLX",
    "city": "84009"
  },
  {
    "name": "BERZEE",
    "name_clean": "Berzée",
    "url": "https://nl.wikipedia.org/wiki/Station_Berzée",
    "lat": 50.28582081171189,
    "lon": 4.405575857735926,
    "region": "WAL",
    "province": "WNA",
    "city": "93088"
  },
  {
    "name": "BEUZET",
    "name_clean": "Beuzet",
    "url": "https://nl.wikipedia.org/wiki/Station_Beuzet",
    "lat": 50.534479287453806,
    "lon": 4.747681617736816,
    "region": "WAL",
    "province": "WNA",
    "city": "92142"
  },
  {
    "name": "BEVEREN",
    "name_clean": "Beveren",
    "url": "https://nl.wikipedia.org/wiki/Station_Beveren",
    "lat": 51.208341986092634,
    "lon": 4.259524941444397,
    "region": "VLG",
    "province": "VOV",
    "city": "46003"
  },
  {
    "name": "BEVERLO",
    "name_clean": "Beverlo",
    "url": "https://nl.wikipedia.org/wiki/Station_Beverlo",
    "lat": 51.0889816430478,
    "lon": 5.234534740447998,
    "region": "VLG",
    "province": "VLI",
    "city": "71004"
  },
  {
    "name": "BIERGES-WALIBI",
    "name_clean": "Bierges-Walibi",
    "url": "https://nl.wikipedia.org/wiki/Station_Bierges-Walibi",
    "lat": 50.7055503277508,
    "lon": 4.591775462064561,
    "region": "WAL",
    "province": "WBR",
    "city": "25112"
  },
  {
    "name": "BIERSET-AWANS",
    "name_clean": "Bierset-Awans",
    "url": "https://nl.wikipedia.org/wiki/Station_Bierset-Awans",
    "lat": 50.65817594812662,
    "lon": 5.457134856278685,
    "region": "WAL",
    "province": "WLG",
    "city": "62118"
  },
  {
    "name": "BILZEN",
    "name_clean": "Bilzen",
    "url": "https://nl.wikipedia.org/wiki/Station_Bilzen",
    "lat": 50.868514408442245,
    "lon": 5.5095174908638,
    "region": "VLG",
    "province": "VLI",
    "city": "73006"
  },
  {
    "name": "BINCHE",
    "name_clean": "Binche",
    "url": "https://nl.wikipedia.org/wiki/Station_Binche",
    "lat": 50.4089218013922,
    "lon": 4.172898977994919,
    "region": "WAL",
    "province": "WHT",
    "city": "56011"
  },
  {
    "name": "BISSEGEM",
    "name_clean": "Bissegem",
    "url": "https://nl.wikipedia.org/wiki/Station_Bissegem",
    "lat": 50.82607145334919,
    "lon": 3.2252852618694305,
    "region": "VLG",
    "province": "VWV",
    "city": "34022"
  },
  {
    "name": "BLANKENBERGE",
    "name_clean": "Blankenberge",
    "url": "https://nl.wikipedia.org/wiki/Station_Blankenberge",
    "lat": 51.31258197539759,
    "lon": 3.1336650252342224,
    "region": "VLG",
    "province": "VWV",
    "city": "31004"
  },
  {
    "name": "BLANMONT",
    "name_clean": "Blanmont",
    "url": "https://nl.wikipedia.org/wiki/Station_Blanmont",
    "lat": 50.620440303424196,
    "lon": 4.63590994477272,
    "region": "WAL",
    "province": "WBR",
    "city": "25117"
  },
  {
    "name": "BLATON",
    "name_clean": "Blaton",
    "url": "https://nl.wikipedia.org/wiki/Station_Blaton",
    "lat": 50.50535316261149,
    "lon": 3.6662100147174215,
    "region": "WAL",
    "province": "WHT",
    "city": "51009"
  },
  {
    "name": "BLERET",
    "name_clean": "Bleret",
    "url": "https://nl.wikipedia.org/wiki/Station_Bleret",
    "lat": 50.68547226017101,
    "lon": 5.285507027440417,
    "region": "WAL",
    "province": "WLG",
    "city": "64074"
  },
  {
    "name": "BOCKSTAEL",
    "name_clean": "Bockstael",
    "url": "https://nl.wikipedia.org/wiki/Station_Bockstael",
    "lat": 50.87957062958298,
    "lon": 4.348368856175966,
    "region": "BRU",
    "city": "21004"
  },
  {
    "name": "BOECHOUT",
    "name_clean": "Boechout",
    "url": "https://nl.wikipedia.org/wiki/Station_Boechout",
    "lat": 51.163644286201425,
    "lon": 4.494131020369991,
    "region": "VLG",
    "province": "VAN",
    "city": "11004"
  },
  {
    "name": "BOKRIJK",
    "name_clean": "Bokrijk",
    "url": "https://nl.wikipedia.org/wiki/Station_Bokrijk",
    "lat": 50.95585331965915,
    "lon": 5.408661654544403,
    "region": "VLG",
    "province": "VLI",
    "city": "71016"
  },
  {
    "name": "BOMAL",
    "name_clean": "Bomal",
    "url": "https://nl.wikipedia.org/wiki/Station_Bomal",
    "lat": 50.37685082202263,
    "lon": 5.519549402158191,
    "region": "WAL",
    "province": "WLX",
    "city": "83012"
  },
  {
    "name": "BOOISCHOT",
    "name_clean": "Booischot",
    "url": "https://nl.wikipedia.org/wiki/Station_Booischot",
    "lat": 51.03733710543733,
    "lon": 4.77356618096826,
    "region": "VLG",
    "province": "VAN",
    "city": "12014"
  },
  {
    "name": "BOOM",
    "name_clean": "Boom",
    "url": "https://nl.wikipedia.org/wiki/Station_Boom",
    "lat": 51.09083,
    "lon": 4.36056,
    "region": "VLG",
    "province": "VAN",
    "city": "11005"
  },
  {
    "name": "BOONDAEL/BOONDAAL",
    "name_clean": "Boondaal",
    "url": "https://nl.wikipedia.org/wiki/Station_Boondaal",
    "lat": 50.801737118003864,
    "lon": 4.393571712298694,
    "region": "BRU",
    "city": "21009"
  },
  {
    "name": "BOORTMEERBEEK",
    "name_clean": "Boortmeerbeek",
    "url": "https://nl.wikipedia.org/wiki/Station_Boortmeerbeek",
    "lat": 50.98196188480831,
    "lon": 4.573525069500192,
    "region": "VLG",
    "province": "VBR",
    "city": "24014"
  },
  {
    "name": "BORDET",
    "name_clean": "Bordet",
    "url": "https://nl.wikipedia.org/wiki/Station_Bordet",
    "lat": 50.87733738131479,
    "lon": 4.409503867885974,
    "region": "BRU",
    "city": "21006"
  },
  {
    "name": "BORNEM",
    "name_clean": "Bornem",
    "url": "https://nl.wikipedia.org/wiki/Station_Bornem",
    "lat": 51.09937441420236,
    "lon": 4.239899218082428,
    "region": "VLG",
    "province": "VAN",
    "city": "12007"
  },
  {
    "name": "BOITSFORT/BOSVOORDE",
    "name_clean": "Bosvoorde",
    "url": "https://nl.wikipedia.org/wiki/Station_Bosvoorde",
    "lat": 50.79463742081297,
    "lon": 4.408168941736221,
    "region": "BRU",
    "city": "21017"
  },
  {
    "name": "BOUSSU",
    "name_clean": "Boussu",
    "url": "https://nl.wikipedia.org/wiki/Station_Boussu",
    "lat": 50.436220592862014,
    "lon": 3.7969178223628433,
    "region": "WAL",
    "province": "WHT",
    "city": "53014"
  },
  {
    "name": "BOUWEL",
    "name_clean": "Bouwel",
    "url": "https://nl.wikipedia.org/wiki/Station_Bouwel",
    "lat": 51.16580624020985,
    "lon": 4.747138367817229,
    "region": "VLG",
    "province": "VAN",
    "city": "13010"
  },
  {
    "name": "BRACQUEGNIES",
    "name_clean": "Bracquegnies",
    "url": "https://nl.wikipedia.org/wiki/Station_Bracquegnies",
    "lat": 50.47433780403228,
    "lon": 4.126593771023863,
    "region": "WAL",
    "province": "WHT",
    "city": "55022"
  },
  {
    "name": "BRAINE-l’ALLEUD",
    "name_clean": "Braine-l'Alleud",
    "url": "https://nl.wikipedia.org/wiki/Station_Braine-l'Alleud",
    "lat": 50.68491753657014,
    "lon": 4.375700801610947,
    "region": "WAL",
    "province": "WBR",
    "city": "25014"
  },
  {
    "name": "BRAINE-LE-COMTE",
    "name_clean": "Braine-le-Comte",
    "url": "https://nl.wikipedia.org/wiki/Station_Braine-le-Comte",
    "lat": 50.60577156692008,
    "lon": 4.1381871700286865,
    "region": "WAL",
    "province": "WHT",
    "city": "55004"
  },
  {
    "name": "BRESSOUX",
    "name_clean": "Bressoux",
    "url": "https://nl.wikipedia.org/wiki/Station_Bressoux",
    "lat": 50.6443433025596,
    "lon": 5.61263480676007,
    "region": "WAL",
    "province": "WLG",
    "city": "62063"
  },
  {
    "name": "BRUGELETTE",
    "name_clean": "Brugelette",
    "url": "https://nl.wikipedia.org/wiki/Station_Brugelette",
    "lat": 50.59418750904078,
    "lon": 3.8526618348644206,
    "region": "WAL",
    "province": "WHT",
    "city": "51012"
  },
  {
    "name": "BRUGGE",
    "name_clean": "Brugge",
    "url": "https://nl.wikipedia.org/wiki/Station_Brugge",
    "lat": 51.197666147503604,
    "lon": 3.2178501784801483,
    "region": "VLG",
    "province": "VWV",
    "city": "31005"
  },
  {
    "name": "BRUGGE-SINT-PIETERS",
    "name_clean": "Brugge-Sint-Pieters",
    "url": "https://nl.wikipedia.org/wiki/Station_Brugge-Sint-Pieters",
    "lat": 51.22275164692689,
    "lon": 3.201855697805172,
    "region": "VLG",
    "province": "VWV",
    "city": "31005"
  },
  {
    "name": "BRU.-CENT.",
    "name_clean": "Brussel-Centraal",
    "url": "https://nl.wikipedia.org/wiki/Station_Brussel-Centraal",
    "lat": 50.84548819839426,
    "lon": 4.3570151925086975,
    "region": "BRU",
    "city": "21004"
  },
  {
    "name": "BRU.-CONG.",
    "name_clean": "Brussel-Congres",
    "url": "https://nl.wikipedia.org/wiki/Station_Brussel-Congres",
    "lat": 50.85215366860351,
    "lon": 4.361896812915802,
    "region": "BRU",
    "city": "21004"
  },
  {
    "name": "BRU.-CHAP./KAP.",
    "name_clean": "Brussel-Kapellekerk",
    "url": "https://nl.wikipedia.org/wiki/Station_Brussel-Kapellekerk",
    "lat": 50.84124981205341,
    "lon": 4.3483637273311615,
    "region": "BRU",
    "city": "21004"
  },
  {
    "name": "BRU.-LUXEMBG",
    "name_clean": "Brussel-Luxemburg",
    "url": "https://nl.wikipedia.org/wiki/Station_Brussel-Luxemburg",
    "lat": 50.83803075232638,
    "lon": 4.373139292001724,
    "region": "BRU",
    "city": "21009"
  },
  {
    "name": "BRU.-NOORD/NORD",
    "name_clean": "Brussel-Noord",
    "url": "https://nl.wikipedia.org/wiki/Station_Brussel-Noord",
    "lat": 50.86073186832828,
    "lon": 4.360960452920381,
    "region": "BRU",
    "city": "21015"
  },
  {
    "name": "BRU.-SCHUMAN",
    "name_clean": "Brussel-Schuman",
    "url": "https://nl.wikipedia.org/wiki/Station_Brussel-Schuman",
    "lat": 50.84232278261472,
    "lon": 4.383094310760498,
    "region": "BRU",
    "city": "21004"
  },
  {
    "name": "BRU.-WEST/OUEST",
    "name_clean": "Brussel-West",
    "url": "https://nl.wikipedia.org/wiki/Station_Brussel-West",
    "lat": 50.849100473102645,
    "lon": 4.32112455368042,
    "region": "BRU",
    "city": "21012"
  },
  {
    "name": "BRU.-MIDI/ZUID",
    "name_clean": "Brussel-Zuid",
    "url": "https://nl.wikipedia.org/wiki/Station_Brussel-Zuid",
    "lat": 50.83648684459458,
    "lon": 4.335015445242107,
    "region": "BRU",
    "city": "21013"
  },
  {
    "name": "BRU. AIRPORT - ZAVENTEM",
    "name_clean": "Brussels Airport-Zaventem",
    "url": "https://nl.wikipedia.org/wiki/Station_Brussels Airport-Zaventem",
    "lat": 50.897222,
    "lon": 4.484722,
    "region": "VLG",
    "province": "VBR",
    "city": "23094"
  },
  {
    "name": "BUDA",
    "name_clean": "Buda",
    "url": "https://nl.wikipedia.org/wiki/Station_Buda",
    "lat": 50.90788066668594,
    "lon": 4.417325806857093,
    "region": "VLG",
    "province": "VBR",
    "city": "23088"
  },
  {
    "name": "BUGGENHOUT",
    "name_clean": "Buggenhout",
    "url": "https://nl.wikipedia.org/wiki/Station_Buggenhout",
    "lat": 51.016370159403884,
    "lon": 4.201307594776154,
    "region": "VLG",
    "province": "VOV",
    "city": "42004"
  },
  {
    "name": "BUIZINGEN",
    "name_clean": "Buizingen",
    "url": "https://nl.wikipedia.org/wiki/Station_Buizingen",
    "lat": 50.75127361041497,
    "lon": 4.258210496670699,
    "region": "VLG",
    "province": "VBR",
    "city": "23027"
  },
  {
    "name": "BURST",
    "name_clean": "Burst",
    "url": "https://nl.wikipedia.org/wiki/Station_Burst",
    "lat": 50.90709562278857,
    "lon": 3.92124742269516,
    "region": "VLG",
    "province": "VOV",
    "city": "41082"
  },
  {
    "name": "CALLENELLE",
    "name_clean": "Callenelle",
    "url": "https://nl.wikipedia.org/wiki/Station_Callenelle",
    "lat": 50.53092923592018,
    "lon": 3.51959820311572,
    "region": "WAL",
    "province": "WHT",
    "city": "57064"
  },
  {
    "name": "CAMBRON-CASTEAU",
    "name_clean": "Cambron-Casteau",
    "url": "https://nl.wikipedia.org/wiki/Station_Cambron-Casteau",
    "lat": 50.58638296150906,
    "lon": 3.875262290239334,
    "region": "WAL",
    "province": "WHT",
    "city": "51012"
  },
  {
    "name": "CARLSBOURG",
    "name_clean": "Carlsbourg",
    "url": "https://nl.wikipedia.org/wiki/Station_Carlsbourg",
    "lat": 49.90748235420399,
    "lon": 5.08725292429915,
    "region": "WAL",
    "province": "WLX",
    "city": "84050"
  },
  {
    "name": "CARNIERES",
    "name_clean": "Carnières",
    "url": "https://nl.wikipedia.org/wiki/Station_Carnières",
    "lat": 50.448001868341734,
    "lon": 4.264093759593948,
    "region": "WAL",
    "province": "WHT",
    "city": "56087"
  },
  {
    "name": "CHAUDFONTAINE",
    "name_clean": "Chaudfontaine",
    "url": "https://nl.wikipedia.org/wiki/Station_Chaudfontaine",
    "lat": 50.586986,
    "lon": 5.643737,
    "region": "WAL",
    "province": "WLG",
    "city": "62022"
  },
  {
    "name": "CHAPELLE-DIEU",
    "name_clean": "Chapelle-Dieu",
    "url": "https://nl.wikipedia.org/wiki/Station_Chapelle-Dieu",
    "lat": 50.55808031667531,
    "lon": 4.698833098788327,
    "region": "WAL",
    "province": "WNA",
    "city": "92142"
  },
  {
    "name": "CHAPOIS",
    "name_clean": "Chapois",
    "url": "https://nl.wikipedia.org/wiki/Station_Chapois",
    "lat": 50.26175966257113,
    "lon": 5.125355422496796,
    "region": "WAL",
    "province": "WNA",
    "city": "91030"
  },
  {
    "name": "CHARLEROI-OUEST",
    "name_clean": "Charleroi-Ouest",
    "url": "https://nl.wikipedia.org/wiki/Station_Charleroi-Ouest",
    "lat": 50.411132301575535,
    "lon": 4.436699514467705,
    "region": "WAL",
    "province": "WHT",
    "city": "52011"
  },
  {
    "name": "CHARLEROI-SUD",
    "name_clean": "Charleroi-Sud",
    "url": "https://nl.wikipedia.org/wiki/Station_Charleroi-Sud",
    "lat": 50.40476525545753,
    "lon": 4.438709914684296,
    "region": "WAL",
    "province": "WHT",
    "city": "52011"
  },
  {
    "name": "CHASTRE",
    "name_clean": "Chastre",
    "url": "https://nl.wikipedia.org/wiki/Station_Chastre",
    "lat": 50.60810437157076,
    "lon": 4.649633610347109,
    "region": "WAL",
    "province": "WBR",
    "city": "25117"
  },
  {
    "name": "CHATEAU-DE-SEILLES",
    "name_clean": "Château-de-Seilles",
    "url": "https://nl.wikipedia.org/wiki/Station_Château-de-Seilles",
    "lat": 50.49727374563366,
    "lon": 5.08217707513586,
    "region": "WAL",
    "province": "WNA",
    "city": "92003"
  },
  {
    "name": "CHATELET",
    "name_clean": "Châtelet",
    "url": "https://nl.wikipedia.org/wiki/Station_Châtelet",
    "lat": 50.409519226823186,
    "lon": 4.521040320396423,
    "region": "WAL",
    "province": "WHT",
    "city": "52012"
  },
  {
    "name": "CHENEE",
    "name_clean": "Chênée",
    "url": "https://nl.wikipedia.org/wiki/Station_Chênée",
    "lat": 50.60753338453799,
    "lon": 5.617406666278839,
    "region": "WAL",
    "province": "WLG",
    "city": "62063"
  },
  {
    "name": "CINEY",
    "name_clean": "Ciney",
    "url": "https://nl.wikipedia.org/wiki/Station_Ciney",
    "lat": 50.291460757622936,
    "lon": 5.091420114040375,
    "region": "WAL",
    "province": "WNA",
    "city": "91030"
  },
  {
    "name": "COMBLAIN-LA-TOUR",
    "name_clean": "Comblain-la-Tour",
    "url": "https://nl.wikipedia.org/wiki/Station_Comblain-la-Tour",
    "lat": 50.45647260106536,
    "lon": 5.567054897546768,
    "region": "WAL",
    "province": "WLG",
    "city": "61024"
  },
  {
    "name": "COO",
    "name_clean": "Coo",
    "url": "https://nl.wikipedia.org/wiki/Station_Coo",
    "lat": 50.39077921653096,
    "lon": 5.880947113037109,
    "region": "WAL",
    "province": "WLG",
    "city": "63073"
  },
  {
    "name": "COUILLET",
    "name_clean": "Couillet",
    "url": "https://nl.wikipedia.org/wiki/Station_Couillet",
    "lat": 50.39263799025592,
    "lon": 4.469170421361923,
    "region": "WAL",
    "province": "WHT",
    "city": "52011"
  },
  {
    "name": "COUR-SUR-HEURE",
    "name_clean": "Cour-sur-Heure",
    "url": "https://nl.wikipedia.org/wiki/Station_Cour-sur-Heure",
    "lat": 50.3004909858288,
    "lon": 4.391710038625661,
    "region": "WAL",
    "province": "WHT",
    "city": "56086"
  },
  {
    "name": "COURCELLES-MOTTE",
    "name_clean": "Courcelles-Motte",
    "url": "https://nl.wikipedia.org/wiki/Station_Courcelles-Motte",
    "lat": 50.46249601130737,
    "lon": 4.400331526994705,
    "region": "WAL",
    "province": "WHT",
    "city": "52015"
  },
  {
    "name": "COURRIERE",
    "name_clean": "Courrière",
    "url": "https://nl.wikipedia.org/wiki/Station_Courrière",
    "lat": 50.388852043440636,
    "lon": 4.995090175870359,
    "region": "WAL",
    "province": "WNA",
    "city": "92006"
  },
  {
    "name": "COURT-SAINT-ETIENNE",
    "name_clean": "Court-Saint-Étienne",
    "url": "https://nl.wikipedia.org/wiki/Station_Court-Saint-Étienne",
    "lat": 50.64574900509717,
    "lon": 4.5657909710980675,
    "region": "WAL",
    "province": "WBR",
    "city": "25023"
  },
  {
    "name": "COUVIN",
    "name_clean": "Couvin",
    "url": "https://nl.wikipedia.org/wiki/Station_Couvin",
    "lat": 50.056174075455004,
    "lon": 4.491629152304995,
    "region": "WAL",
    "province": "WNA",
    "city": "93014"
  },
  {
    "name": "CEROUX-MOUSTY",
    "name_clean": "Céroux-Mousty",
    "url": "https://nl.wikipedia.org/wiki/Station_Céroux-Mousty",
    "lat": 50.66022524722763,
    "lon": 4.569084796006678,
    "region": "WAL",
    "province": "WBR",
    "city": "25121"
  },
  {
    "name": "DAVE-SAINT-MARTIN",
    "name_clean": "Dave-Saint-Martin",
    "url": "https://nl.wikipedia.org/wiki/Station_Dave-Saint-Martin",
    "lat": 50.42891268179296,
    "lon": 4.884557855243884,
    "region": "WAL",
    "province": "WNA",
    "city": "92094"
  },
  {
    "name": "DE HOEK",
    "name_clean": "De Hoek",
    "url": "https://nl.wikipedia.org/wiki/Station_De Hoek",
    "lat": 50.73865933942295,
    "lon": 4.37106192111969,
    "region": "VLG",
    "province": "VBR",
    "city": "23101"
  },
  {
    "name": "DE PANNE",
    "name_clean": "De Panne",
    "url": "https://nl.wikipedia.org/wiki/Station_De Panne",
    "lat": 51.07741874130951,
    "lon": 2.602386474609375,
    "region": "VLG",
    "province": "VWV",
    "city": "38008"
  },
  {
    "name": "DE PINTE",
    "name_clean": "De Pinte",
    "url": "https://nl.wikipedia.org/wiki/Station_De Pinte",
    "lat": 50.99643631371482,
    "lon": 3.6495802134697897,
    "region": "VLG",
    "province": "VOV",
    "city": "44012"
  },
  {
    "name": "DEINZE",
    "name_clean": "Deinze",
    "url": "https://nl.wikipedia.org/wiki/Station_Deinze",
    "lat": 50.97817509057112,
    "lon": 3.534899353981018,
    "region": "VLG",
    "province": "VOV",
    "city": "44083"
  },
  {
    "name": "DELTA",
    "name_clean": "Delta",
    "url": "https://nl.wikipedia.org/wiki/Station_Delta",
    "lat": 50.81874731599824,
    "lon": 4.403991401195526,
    "region": "BRU",
    "city": "21002"
  },
  {
    "name": "DENDERLEEUW",
    "name_clean": "Denderleeuw",
    "url": "https://nl.wikipedia.org/wiki/Station_Denderleeuw",
    "lat": 50.89168659758202,
    "lon": 4.07256156206131,
    "region": "VLG",
    "province": "VOV",
    "city": "41011"
  },
  {
    "name": "DENDERMONDE",
    "name_clean": "Dendermonde",
    "url": "https://nl.wikipedia.org/wiki/Station_Dendermonde",
    "lat": 51.023241477572626,
    "lon": 4.101356416940689,
    "region": "VLG",
    "province": "VOV",
    "city": "42006"
  },
  {
    "name": "DIEGEM",
    "name_clean": "Diegem",
    "url": "https://nl.wikipedia.org/wiki/Station_Diegem",
    "lat": 50.88946422558886,
    "lon": 4.446981847286224,
    "region": "VLG",
    "province": "VBR",
    "city": "23047"
  },
  {
    "name": "DIEPENBEEK",
    "name_clean": "Diepenbeek",
    "url": "https://nl.wikipedia.org/wiki/Station_Diepenbeek",
    "lat": 50.91077246495721,
    "lon": 5.419369786977768,
    "region": "VLG",
    "province": "VLI",
    "city": "71011"
  },
  {
    "name": "VIVIER D’OIE/DIESDELLE",
    "name_clean": "Diesdelle",
    "url": "https://nl.wikipedia.org/wiki/Station_Diesdelle",
    "lat": 50.79604638509796,
    "lon": 4.372042204396735,
    "region": "BRU",
    "city": "21016"
  },
  {
    "name": "DIEST",
    "name_clean": "Diest",
    "url": "https://nl.wikipedia.org/wiki/Station_Diest",
    "lat": 50.99301103334917,
    "lon": 5.0511521100997925,
    "region": "VLG",
    "province": "VBR",
    "city": "24020"
  },
  {
    "name": "DIKSMUIDE",
    "name_clean": "Diksmuide",
    "url": "https://nl.wikipedia.org/wiki/Station_Diksmuide",
    "lat": 51.03279635820946,
    "lon": 2.8691375255584717,
    "region": "VLG",
    "province": "VWV",
    "city": "32003"
  },
  {
    "name": "DILBEEK",
    "name_clean": "Dilbeek",
    "url": "https://nl.wikipedia.org/wiki/Station_Dilbeek",
    "lat": 50.866148733182435,
    "lon": 4.244421422481537,
    "region": "VLG",
    "province": "VBR",
    "city": "23016"
  },
  {
    "name": "DINANT",
    "name_clean": "Dinant",
    "url": "https://nl.wikipedia.org/wiki/Station_Dinant",
    "lat": 50.2611723790763,
    "lon": 4.9080535769462585,
    "region": "WAL",
    "province": "WNA",
    "city": "91034"
  },
  {
    "name": "DOLHAIN-GILEPPE",
    "name_clean": "Dolhain-Gileppe",
    "url": "https://nl.wikipedia.org/wiki/Station_Dolhain-Gileppe",
    "lat": 50.625489601650706,
    "lon": 5.938468030839431,
    "region": "WAL",
    "province": "WLG",
    "city": "63046"
  },
  {
    "name": "DRONGEN",
    "name_clean": "Drongen",
    "url": "https://nl.wikipedia.org/wiki/Station_Drongen",
    "lat": 51.04726747444076,
    "lon": 3.6551347374916077,
    "region": "VLG",
    "province": "VOV",
    "city": "44021"
  },
  {
    "name": "DUFFEL",
    "name_clean": "Duffel",
    "url": "https://nl.wikipedia.org/wiki/Station_Duffel",
    "lat": 51.09120122098903,
    "lon": 4.493203014135361,
    "region": "VLG",
    "province": "VAN",
    "city": "12009"
  },
  {
    "name": "DUINBERGEN",
    "name_clean": "Duinbergen",
    "url": "https://nl.wikipedia.org/wiki/Station_Duinbergen",
    "lat": 51.33825478558103,
    "lon": 3.2636042946335238,
    "region": "VLG",
    "province": "VWV",
    "city": "31043"
  },
  {
    "name": "ECAUSSINNES",
    "name_clean": "Ecaussinnes",
    "url": "https://nl.wikipedia.org/wiki/Station_Ecaussinnes",
    "lat": 50.562256733173506,
    "lon": 4.157047122716904,
    "region": "WAL",
    "province": "WHT",
    "city": "55050"
  },
  {
    "name": "EDE",
    "name_clean": "Ede",
    "url": "https://nl.wikipedia.org/wiki/Station_Ede",
    "lat": 50.910895923338806,
    "lon": 3.9874161779880524,
    "region": "VLG",
    "province": "VOV",
    "city": "41024"
  },
  {
    "name": "ENGHIEN/EDINGEN",
    "name_clean": "Edingen",
    "url": "https://nl.wikipedia.org/wiki/Station_Edingen",
    "lat": 50.69708880425904,
    "lon": 4.046977311372757,
    "region": "WAL",
    "province": "WHT",
    "city": "55010"
  },
  {
    "name": "EEKLO",
    "name_clean": "Eeklo",
    "url": "https://nl.wikipedia.org/wiki/Station_Eeklo",
    "lat": 51.180771336976505,
    "lon": 3.5750573873519897,
    "region": "VLG",
    "province": "VOV",
    "city": "43005"
  },
  {
    "name": "EICHEM",
    "name_clean": "Eichem",
    "url": "https://nl.wikipedia.org/wiki/Station_Eichem",
    "lat": 50.824094176562056,
    "lon": 3.993750214576721,
    "region": "VLG",
    "province": "VOV",
    "city": "41048"
  },
  {
    "name": "EINE",
    "name_clean": "Eine",
    "url": "https://nl.wikipedia.org/wiki/Station_Eine",
    "lat": 50.87103378329058,
    "lon": 3.6237701974779384,
    "region": "VLG",
    "province": "VOV",
    "city": "45035"
  },
  {
    "name": "EKE-NAZARETH",
    "name_clean": "Eke-Nazareth",
    "url": "https://nl.wikipedia.org/wiki/Station_Eke-Nazareth",
    "lat": 50.96077504240129,
    "lon": 3.627835214138031,
    "region": "VLG",
    "province": "VOV",
    "city": "44048"
  },
  {
    "name": "EKEREN",
    "name_clean": "Ekeren",
    "url": "https://nl.wikipedia.org/wiki/Station_Ekeren",
    "lat": 51.281598533354035,
    "lon": 4.434124678373337,
    "region": "VLG",
    "province": "VAN",
    "city": "11002"
  },
  {
    "name": "ENGIS",
    "name_clean": "Engis",
    "url": "https://nl.wikipedia.org/wiki/Station_Engis",
    "lat": 50.58275781861482,
    "lon": 5.402283011586746,
    "region": "WAL",
    "province": "WLG",
    "city": "61080"
  },
  {
    "name": "EPPEGEM",
    "name_clean": "Eppegem",
    "url": "https://nl.wikipedia.org/wiki/Station_Eppegem",
    "lat": 50.9585818320172,
    "lon": 4.457661541202697,
    "region": "VLG",
    "province": "VBR",
    "city": "23096"
  },
  {
    "name": "ERBISOEUL",
    "name_clean": "Erbisœul",
    "url": "https://nl.wikipedia.org/wiki/Station_Erbisoeul",
    "lat": 50.50723219840464,
    "lon": 3.8881154358386993,
    "region": "WAL",
    "province": "WHT",
    "city": "53044"
  },
  {
    "name": "EREMBODEGEM",
    "name_clean": "Erembodegem",
    "url": "https://nl.wikipedia.org/wiki/Station_Erembodegem",
    "lat": 50.91951521467773,
    "lon": 4.055608659982681,
    "region": "VLG",
    "province": "VOV",
    "city": "41002"
  },
  {
    "name": "ERNAGE",
    "name_clean": "Ernage",
    "url": "https://nl.wikipedia.org/wiki/Station_Ernage",
    "lat": 50.59215227865836,
    "lon": 4.667338728904724,
    "region": "WAL",
    "province": "WNA",
    "city": "92142"
  },
  {
    "name": "ERPE-MERE",
    "name_clean": "Erpe-Mere",
    "url": "https://nl.wikipedia.org/wiki/Station_Erpe-Mere",
    "lat": 50.929102448402176,
    "lon": 3.962855190038681,
    "region": "VLG",
    "province": "VOV",
    "city": "41082"
  },
  {
    "name": "ERPS-KWERPS",
    "name_clean": "Erps-Kwerps",
    "url": "https://nl.wikipedia.org/wiki/Station_Erps-Kwerps",
    "lat": 50.89666469666913,
    "lon": 4.587728452279407,
    "region": "VLG",
    "province": "VBR",
    "city": "24055"
  },
  {
    "name": "ERQUELINNES",
    "name_clean": "Erquelinnes",
    "url": "https://nl.wikipedia.org/wiki/Station_Erquelinnes",
    "lat": 50.30387257525832,
    "lon": 4.112213999032974,
    "region": "WAL",
    "province": "WHT",
    "city": "56022"
  },
  {
    "name": "ERQUELINNES-VILLAGE",
    "name_clean": "Erquelinnes-Village",
    "url": "https://nl.wikipedia.org/wiki/Station_Erquelinnes-Village",
    "lat": 50.31019703036943,
    "lon": 4.131679317183057,
    "region": "WAL",
    "province": "WHT",
    "city": "56022"
  },
  {
    "name": "ESNEUX",
    "name_clean": "Esneux",
    "url": "https://nl.wikipedia.org/wiki/Station_Esneux",
    "lat": 50.530393440001866,
    "lon": 5.572576224803925,
    "region": "WAL",
    "province": "WLG",
    "city": "62032"
  },
  {
    "name": "ESSEN",
    "name_clean": "Essen",
    "url": "https://nl.wikipedia.org/wiki/Station_Essen",
    "lat": 51.46276419996717,
    "lon": 4.451317638158798,
    "region": "VLG",
    "province": "VAN",
    "city": "11016"
  },
  {
    "name": "ESSENE-LOMBEEK",
    "name_clean": "Essene-Lombeek",
    "url": "https://nl.wikipedia.org/wiki/Station_Essene-Lombeek",
    "lat": 50.88235090221062,
    "lon": 4.115869684175095,
    "region": "VLG",
    "province": "VBR",
    "city": "23086"
  },
  {
    "name": "ETTERBEEK",
    "name_clean": "Etterbeek",
    "url": "https://nl.wikipedia.org/wiki/Station_Etterbeek",
    "lat": 50.82220831528429,
    "lon": 4.389510154724121,
    "region": "BRU",
    "city": "21009"
  },
  {
    "name": "EUPEN",
    "name_clean": "Eupen",
    "url": "https://nl.wikipedia.org/wiki/Station_Eupen",
    "lat": 50.63517846862402,
    "lon": 6.036928296089172,
    "region": "WAL",
    "province": "WLG",
    "city": "63023"
  },
  {
    "name": "EVERE",
    "name_clean": "Evere",
    "url": "https://nl.wikipedia.org/wiki/Station_Evere",
    "lat": 50.867263195053276,
    "lon": 4.40058716063038,
    "region": "BRU",
    "city": "21006"
  },
  {
    "name": "EVERGEM",
    "name_clean": "Evergem",
    "url": "https://nl.wikipedia.org/wiki/Station_Evergem",
    "lat": 51.10713693604091,
    "lon": 3.7023255228996277,
    "region": "VLG",
    "province": "VOV",
    "city": "44019"
  },
  {
    "name": "EZEMAAL",
    "name_clean": "Ezemaal",
    "url": "https://nl.wikipedia.org/wiki/Station_Ezemaal",
    "lat": 50.77158949310464,
    "lon": 4.995262920856476,
    "region": "VLG",
    "province": "VBR",
    "city": "24059"
  },
  {
    "name": "FAMILLEUREUX",
    "name_clean": "Familleureux",
    "url": "https://nl.wikipedia.org/wiki/Station_Familleureux",
    "lat": 50.51995163387319,
    "lon": 4.210557582929368,
    "region": "WAL",
    "province": "WHT",
    "city": "52063"
  },
  {
    "name": "FARCIENNES",
    "name_clean": "Farciennes",
    "url": "https://nl.wikipedia.org/wiki/Station_Farciennes",
    "lat": 50.429435078038345,
    "lon": 4.5527467131614685,
    "region": "WAL",
    "province": "WHT",
    "city": "52018"
  },
  {
    "name": "FAUX",
    "name_clean": "Faux",
    "url": "https://nl.wikipedia.org/wiki/Station_Faux",
    "lat": 50.62141879396506,
    "lon": 4.54901710152626,
    "region": "WAL",
    "province": "WBR",
    "city": "25023"
  },
  {
    "name": "FEXHE-LE-HT-CLOCHER",
    "name_clean": "Fexhe-le-Haut-Clocher",
    "url": "https://nl.wikipedia.org/wiki/Station_Fexhe-le-Haut-Clocher",
    "lat": 50.66425673110738,
    "lon": 5.3970801321482895,
    "region": "WAL",
    "province": "WLG",
    "city": "64025"
  },
  {
    "name": "FLAWINNE",
    "name_clean": "Flawinne",
    "url": "https://nl.wikipedia.org/wiki/Station_Flawinne",
    "lat": 50.4563260566389,
    "lon": 4.806596421795689,
    "region": "WAL",
    "province": "WNA",
    "city": "92094"
  },
  {
    "name": "FLEURUS",
    "name_clean": "Fleurus",
    "url": "https://nl.wikipedia.org/wiki/Station_Fleurus",
    "lat": 50.48298480249545,
    "lon": 4.544839560985565,
    "region": "WAL",
    "province": "WHT",
    "city": "52021"
  },
  {
    "name": "FLOREFFE",
    "name_clean": "Floreffe",
    "url": "https://nl.wikipedia.org/wiki/Station_Floreffe",
    "lat": 50.443185943599836,
    "lon": 4.762747585773468,
    "region": "WAL",
    "province": "WNA",
    "city": "92045"
  },
  {
    "name": "FLORENVILLE",
    "name_clean": "Florenville",
    "url": "https://nl.wikipedia.org/wiki/Station_Florenville",
    "lat": 49.70699257222151,
    "lon": 5.331654058572326,
    "region": "WAL",
    "province": "WLX",
    "city": "85011"
  },
  {
    "name": "FLORIVAL",
    "name_clean": "Florival",
    "url": "https://nl.wikipedia.org/wiki/Station_Florival",
    "lat": 50.76154228390586,
    "lon": 4.653903543949127,
    "region": "WAL",
    "province": "WBR",
    "city": "25037"
  },
  {
    "name": "FLEMALLE-GRANDE",
    "name_clean": "Flémalle-Grande",
    "url": "https://nl.wikipedia.org/wiki/Station_Flémalle-Grande",
    "lat": 50.604881264493095,
    "lon": 5.480203221766942,
    "region": "WAL",
    "province": "WLG",
    "city": "62120"
  },
  {
    "name": "FLEMALLE-HAUTE",
    "name_clean": "Flémalle-Haute",
    "url": "https://nl.wikipedia.org/wiki/Station_Flémalle-Haute",
    "lat": 50.5944624703223,
    "lon": 5.456510364129599,
    "region": "WAL",
    "province": "WLG",
    "city": "62120"
  },
  {
    "name": "FONTAINE-VALMONT",
    "name_clean": "Fontaine-Valmont",
    "url": "https://nl.wikipedia.org/wiki/Station_Fontaine-Valmont",
    "lat": 50.32124950248112,
    "lon": 4.212803542613983,
    "region": "WAL",
    "province": "WHT",
    "city": "56049"
  },
  {
    "name": "FORCHIES",
    "name_clean": "Forchies",
    "url": "https://nl.wikipedia.org/wiki/Station_Forchies",
    "lat": 50.43326484511516,
    "lon": 4.324650317430496,
    "region": "WAL",
    "province": "WHT",
    "city": "52022"
  },
  {
    "name": "FORRIERES",
    "name_clean": "Forrières",
    "url": "https://nl.wikipedia.org/wiki/Station_Forrières",
    "lat": 50.132686117599405,
    "lon": 5.276867245080439,
    "region": "WAL",
    "province": "WLX",
    "city": "83040"
  },
  {
    "name": "FRAIPONT",
    "name_clean": "Fraipont",
    "url": "https://nl.wikipedia.org/wiki/Station_Fraipont",
    "lat": 50.56501606798034,
    "lon": 5.723722303529939,
    "region": "WAL",
    "province": "WLG",
    "city": "62122"
  },
  {
    "name": "FRAMERIES",
    "name_clean": "Frameries",
    "url": "https://nl.wikipedia.org/wiki/Station_Frameries",
    "lat": 50.40588083047223,
    "lon": 3.906189501285553,
    "region": "WAL",
    "province": "WHT",
    "city": "53028"
  },
  {
    "name": "FRANCHIMONT",
    "name_clean": "Franchimont",
    "url": "https://nl.wikipedia.org/wiki/Station_Franchimont",
    "lat": 50.525425670853274,
    "lon": 5.822525918483734,
    "region": "WAL",
    "province": "WLG",
    "city": "63076"
  },
  {
    "name": "FRANIERE",
    "name_clean": "Franière",
    "url": "https://nl.wikipedia.org/wiki/Station_Franière",
    "lat": 50.43930231398223,
    "lon": 4.734190106391907,
    "region": "WAL",
    "province": "WNA",
    "city": "92045"
  },
  {
    "name": "FROYENNES",
    "name_clean": "Froyennes",
    "url": "https://nl.wikipedia.org/wiki/Station_Froyennes",
    "lat": 50.62986634831194,
    "lon": 3.354671342060783,
    "region": "WAL",
    "province": "WHT",
    "city": "57081"
  },
  {
    "name": "GALMAARDEN",
    "name_clean": "Galmaarden",
    "url": "https://nl.wikipedia.org/wiki/Station_Galmaarden",
    "lat": 50.743662063978384,
    "lon": 3.966836127621036,
    "region": "VLG",
    "province": "VBR",
    "city": "23023"
  },
  {
    "name": "GASTUCHE",
    "name_clean": "Gastuche",
    "url": "https://nl.wikipedia.org/wiki/Station_Gastuche",
    "lat": 50.73626682720385,
    "lon": 4.649670278146232,
    "region": "WAL",
    "province": "WBR",
    "city": "25037"
  },
  {
    "name": "GAVERE-ASPER",
    "name_clean": "Gavere-Asper",
    "url": "https://nl.wikipedia.org/wiki/Station_Gavere-Asper",
    "lat": 50.92895452531805,
    "lon": 3.640212267637253,
    "region": "VLG",
    "province": "VOV",
    "city": "44020"
  },
  {
    "name": "GEDINNE",
    "name_clean": "Gedinne",
    "url": "https://nl.wikipedia.org/wiki/Station_Gedinne",
    "lat": 49.98433514091509,
    "lon": 4.978033751249313,
    "region": "WAL",
    "province": "WNA",
    "city": "91054"
  },
  {
    "name": "GEEL",
    "name_clean": "Geel",
    "url": "https://nl.wikipedia.org/wiki/Station_Geel",
    "lat": 51.168880738781525,
    "lon": 4.989244043827057,
    "region": "VLG",
    "province": "VAN",
    "city": "13008"
  },
  {
    "name": "GEMBLOUX",
    "name_clean": "Gembloux",
    "url": "https://nl.wikipedia.org/wiki/Station_Gembloux",
    "lat": 50.57018405651237,
    "lon": 4.6911366283893585,
    "region": "WAL",
    "province": "WNA",
    "city": "92142"
  },
  {
    "name": "GENDRON-CELLES",
    "name_clean": "Gendron-Celles",
    "url": "https://nl.wikipedia.org/wiki/Station_Gendron-Celles",
    "lat": 50.21032735728812,
    "lon": 4.964725971221924,
    "region": "WAL",
    "province": "WNA",
    "city": "91072"
  },
  {
    "name": "GENK",
    "name_clean": "Genk",
    "url": "https://nl.wikipedia.org/wiki/Station_Genk",
    "lat": 50.96712335681563,
    "lon": 5.496117174625397,
    "region": "VLG",
    "province": "VLI",
    "city": "71016"
  },
  {
    "name": "GENLY",
    "name_clean": "Genly",
    "url": "https://nl.wikipedia.org/wiki/Station_Genly",
    "lat": 50.39126443703165,
    "lon": 3.9112917333841324,
    "region": "WAL",
    "province": "WHT",
    "city": "53084"
  },
  {
    "name": "GENT-DAMPOORT",
    "name_clean": "Gent-Dampoort",
    "url": "https://nl.wikipedia.org/wiki/Station_Gent-Dampoort",
    "lat": 51.0562491722193,
    "lon": 3.7402786508741883,
    "region": "VLG",
    "province": "VOV",
    "city": "44021"
  },
  {
    "name": "GENT-SINT-PIETERS",
    "name_clean": "Gent-Sint-Pieters",
    "url": "https://nl.wikipedia.org/wiki/Station_Gent-Sint-Pieters",
    "lat": 51.03611328330639,
    "lon": 3.7108388543128967,
    "region": "VLG",
    "province": "VOV",
    "city": "44021"
  },
  {
    "name": "GENTBRUGGE",
    "name_clean": "Gentbrugge",
    "url": "https://nl.wikipedia.org/wiki/Station_Gentbrugge",
    "lat": 51.03877896431717,
    "lon": 3.756226524710655,
    "region": "VLG",
    "province": "VOV",
    "city": "44021"
  },
  {
    "name": "GENVAL",
    "name_clean": "Genval",
    "url": "https://nl.wikipedia.org/wiki/Station_Genval",
    "lat": 50.72542492807654,
    "lon": 4.51507106423378,
    "region": "WAL",
    "province": "WBR",
    "city": "25091"
  },
  {
    "name": "GERAARDSBERGEN",
    "name_clean": "Geraardsbergen",
    "url": "https://nl.wikipedia.org/wiki/Station_Geraardsbergen",
    "lat": 50.77042075181257,
    "lon": 3.8723024725914,
    "region": "VLG",
    "province": "VOV",
    "city": "41018"
  },
  {
    "name": "GERMOIR/MOUTERIJ",
    "name_clean": "Mouterij",
    "url": "https://nl.wikipedia.org/wiki/Station_Mouterij",
    "lat": 50.83107780801504,
    "lon": 4.378577470779419,
    "region": "BRU",
    "city": "21009"
  },
  {
    "name": "GHLIN",
    "name_clean": "Ghlin",
    "url": "https://nl.wikipedia.org/wiki/Station_Ghlin",
    "lat": 50.487465523694425,
    "lon": 3.9063739444861767,
    "region": "WAL",
    "province": "WHT",
    "city": "53053"
  },
  {
    "name": "GLONS",
    "name_clean": "Glons",
    "url": "https://nl.wikipedia.org/wiki/Station_Glons",
    "lat": 50.75045858780661,
    "lon": 5.535347163677216,
    "region": "WAL",
    "province": "WLG",
    "city": "62011"
  },
  {
    "name": "GODARVILLE",
    "name_clean": "Godarville",
    "url": "https://nl.wikipedia.org/wiki/Station_Godarville",
    "lat": 50.49287085934579,
    "lon": 4.290130303071692,
    "region": "WAL",
    "province": "WHT",
    "city": "52010"
  },
  {
    "name": "GODINNE",
    "name_clean": "Godinne",
    "url": "https://nl.wikipedia.org/wiki/Station_Godinne",
    "lat": 50.34853190262854,
    "lon": 4.867703765630722,
    "region": "WAL",
    "province": "WNA",
    "city": "91141"
  },
  {
    "name": "GONTRODE",
    "name_clean": "Gontrode",
    "url": "https://nl.wikipedia.org/wiki/Station_Gontrode",
    "lat": 50.97974769589616,
    "lon": 3.8013789341853226,
    "region": "VLG",
    "province": "VOV",
    "city": "44040"
  },
  {
    "name": "GOUVY",
    "name_clean": "Gouvy",
    "url": "https://nl.wikipedia.org/wiki/Station_Gouvy",
    "lat": 50.18983180255206,
    "lon": 5.953919291496277,
    "region": "WAL",
    "province": "WLX",
    "city": "82037"
  },
  {
    "name": "GOUY-LEZ-PIETON",
    "name_clean": "Gouy-lez-Piéton",
    "url": "https://nl.wikipedia.org/wiki/Station_Gouy-lez-Piéton",
    "lat": 50.49692357455917,
    "lon": 4.3252792954444885,
    "region": "WAL",
    "province": "WHT",
    "city": "52015"
  },
  {
    "name": "GRAIDE",
    "name_clean": "Graide",
    "url": "https://nl.wikipedia.org/wiki/Station_Graide",
    "lat": 49.93365316174025,
    "lon": 5.043520816550199,
    "region": "WAL",
    "province": "WNA",
    "city": "91015"
  },
  {
    "name": "GROENENDAAL",
    "name_clean": "Groenendaal",
    "url": "https://nl.wikipedia.org/wiki/Station_Groenendaal",
    "lat": 50.76638188322644,
    "lon": 4.448946955935753,
    "region": "VLG",
    "province": "VBR",
    "city": "23033"
  },
  {
    "name": "GROOT-BIJGAARDEN",
    "name_clean": "Groot-Bijgaarden",
    "url": "https://nl.wikipedia.org/wiki/Station_Groot-Bijgaarden",
    "lat": 50.86840184056885,
    "lon": 4.273704439401627,
    "region": "VLG",
    "province": "VBR",
    "city": "23016"
  },
  {
    "name": "GRUPONT",
    "name_clean": "Grupont",
    "url": "https://nl.wikipedia.org/wiki/Station_Grupont",
    "lat": 50.09082936501848,
    "lon": 5.280965724771477,
    "region": "WAL",
    "province": "WLX",
    "city": "84068"
  },
  {
    "name": "HAACHT",
    "name_clean": "Haacht",
    "url": "https://nl.wikipedia.org/wiki/Station_Haacht",
    "lat": 50.96630241555244,
    "lon": 4.613593965768814,
    "region": "VLG",
    "province": "VBR",
    "city": "24033"
  },
  {
    "name": "HAALTERT",
    "name_clean": "Haaltert",
    "url": "https://nl.wikipedia.org/wiki/Station_Haaltert",
    "lat": 50.90676750040265,
    "lon": 4.023534804582596,
    "region": "VLG",
    "province": "VOV",
    "city": "41002"
  },
  {
    "name": "HABAY",
    "name_clean": "Habay",
    "url": "https://nl.wikipedia.org/wiki/Station_Habay",
    "lat": 49.7182937906657,
    "lon": 5.632661730051041,
    "region": "WAL",
    "province": "WLX",
    "city": "85046"
  },
  {
    "name": "HAININ",
    "name_clean": "Hainin",
    "url": "https://nl.wikipedia.org/wiki/Station_Hainin",
    "lat": 50.428165015925664,
    "lon": 3.7672373285822687,
    "region": "WAL",
    "province": "WHT",
    "city": "53039"
  },
  {
    "name": "HALANZY",
    "name_clean": "Halanzy",
    "url": "https://nl.wikipedia.org/wiki/Station_Halanzy",
    "lat": 49.555960415868086,
    "lon": 5.7433996352934855,
    "region": "WAL",
    "province": "WLX",
    "city": "81004"
  },
  {
    "name": "HALLE",
    "name_clean": "Halle",
    "url": "https://nl.wikipedia.org/wiki/Station_Halle",
    "lat": 50.733535279063275,
    "lon": 4.240117818117142,
    "region": "VLG",
    "province": "VBR",
    "city": "23027"
  },
  {
    "name": "HAM-SUR-HEURE",
    "name_clean": "Ham-sur-Heure",
    "url": "https://nl.wikipedia.org/wiki/Station_Ham-sur-Heure",
    "lat": 50.31970647591213,
    "lon": 4.404931515455246,
    "region": "WAL",
    "province": "WHT",
    "city": "56086"
  },
  {
    "name": "HAM-SUR-SAMBRE",
    "name_clean": "Ham-sur-Sambre",
    "url": "https://nl.wikipedia.org/wiki/Station_Ham-sur-Sambre",
    "lat": 50.45293418363038,
    "lon": 4.671176970005035,
    "region": "WAL",
    "province": "WNA",
    "city": "92140"
  },
  {
    "name": "HAMBOS",
    "name_clean": "Hambos",
    "url": "https://nl.wikipedia.org/wiki/Station_Hambos",
    "lat": 50.944143204470926,
    "lon": 4.663837320039647,
    "region": "VLG",
    "province": "VBR",
    "city": "24033"
  },
  {
    "name": "HAMOIR",
    "name_clean": "Hamoir",
    "url": "https://nl.wikipedia.org/wiki/Station_Hamoir",
    "lat": 50.42829469048818,
    "lon": 5.533722865947311,
    "region": "WAL",
    "province": "WLG",
    "city": "61024"
  },
  {
    "name": "HAMONT",
    "name_clean": "Hamont",
    "url": "https://nl.wikipedia.org/wiki/Station_Hamont",
    "lat": 51.246279367028265,
    "lon": 5.543533265590668,
    "region": "VLG",
    "province": "VLI",
    "city": "72037"
  },
  {
    "name": "HANSBEKE",
    "name_clean": "Hansbeke",
    "url": "https://nl.wikipedia.org/wiki/Station_Hansbeke",
    "lat": 51.073250829609115,
    "lon": 3.5361750671706886,
    "region": "VLG",
    "province": "VOV",
    "city": "44083"
  },
  {
    "name": "HARCHIES",
    "name_clean": "Harchies",
    "url": "https://nl.wikipedia.org/wiki/Station_Harchies",
    "lat": 50.482340088663484,
    "lon": 3.6990787088871,
    "region": "WAL",
    "province": "WHT",
    "city": "51009"
  },
  {
    "name": "HARELBEKE",
    "name_clean": "Harelbeke",
    "url": "https://nl.wikipedia.org/wiki/Station_Harelbeke",
    "lat": 50.85659937243802,
    "lon": 3.3146477690577285,
    "region": "VLG",
    "province": "VWV",
    "city": "34013"
  },
  {
    "name": "HAREN",
    "name_clean": "Haren",
    "url": "https://nl.wikipedia.org/wiki/Station_Haren",
    "lat": 50.888645391443895,
    "lon": 4.419912663316268,
    "region": "BRU",
    "city": "21004"
  },
  {
    "name": "HAREN-ZUID/SUD",
    "name_clean": "Haren-Zuid",
    "url": "https://nl.wikipedia.org/wiki/Station_Haren-Zuid",
    "lat": 50.89009364052471,
    "lon": 4.417391717433929,
    "region": "BRU",
    "city": "21004"
  },
  {
    "name": "HASSELT",
    "name_clean": "Hasselt",
    "url": "https://nl.wikipedia.org/wiki/Station_Hasselt",
    "lat": 50.93092059599906,
    "lon": 5.3276315331459045,
    "region": "VLG",
    "province": "VLI",
    "city": "71022"
  },
  {
    "name": "HAUTE-FLONE",
    "name_clean": "Haute-Flône",
    "url": "https://nl.wikipedia.org/wiki/Station_Haute-Flône",
    "lat": 50.553680425880806,
    "lon": 5.330451307905605,
    "region": "WAL",
    "province": "WLG",
    "city": "61003"
  },
  {
    "name": "HAVERSIN",
    "name_clean": "Haversin",
    "url": "https://nl.wikipedia.org/wiki/Station_Haversin",
    "lat": 50.24912589748841,
    "lon": 5.194512158632278,
    "region": "WAL",
    "province": "WNA",
    "city": "91030"
  },
  {
    "name": "HAVRE",
    "name_clean": "Havré",
    "url": "https://nl.wikipedia.org/wiki/Station_Havré",
    "lat": 50.47059750857966,
    "lon": 4.05973447588849,
    "region": "WAL",
    "province": "WHT",
    "city": "53053"
  },
  {
    "name": "HEIDE",
    "name_clean": "Heide",
    "url": "https://nl.wikipedia.org/wiki/Station_Heide",
    "lat": 51.36480258734929,
    "lon": 4.46038082242012,
    "region": "VLG",
    "province": "VAN",
    "city": "11022"
  },
  {
    "name": "HEIST",
    "name_clean": "Heist",
    "url": "https://nl.wikipedia.org/wiki/Station_Heist",
    "lat": 51.334034561957694,
    "lon": 3.239176422357559,
    "region": "VLG",
    "province": "VWV",
    "city": "31043"
  },
  {
    "name": "HEIST-OP-DEN-BERG",
    "name_clean": "Heist-op-den-Berg",
    "url": "https://nl.wikipedia.org/wiki/Station_Heist-op-den-Berg",
    "lat": 51.07407780938024,
    "lon": 4.708693027496338,
    "region": "VLG",
    "province": "VAN",
    "city": "12014"
  },
  {
    "name": "HEIZIJDE",
    "name_clean": "Heizijde",
    "url": "https://nl.wikipedia.org/wiki/Station_Heizijde",
    "lat": 50.98921899406533,
    "lon": 4.1568818500780935,
    "region": "VLG",
    "province": "VOV",
    "city": "42011"
  },
  {
    "name": "HEMIKSEM",
    "name_clean": "Hemiksem",
    "url": "https://nl.wikipedia.org/wiki/Station_Hemiksem",
    "lat": 51.13625810887938,
    "lon": 4.338387857348948,
    "region": "VLG",
    "province": "VAN",
    "city": "11018"
  },
  {
    "name": "HENNUYERES",
    "name_clean": "Hennuyères",
    "url": "https://nl.wikipedia.org/wiki/Station_Hennuyères",
    "lat": 50.65131320136441,
    "lon": 4.176579887982484,
    "region": "WAL",
    "province": "WHT",
    "city": "55004"
  },
  {
    "name": "HERENT",
    "name_clean": "Herent",
    "url": "https://nl.wikipedia.org/wiki/Station_Herent",
    "lat": 50.90382613511164,
    "lon": 4.673706293106079,
    "region": "VLG",
    "province": "VBR",
    "city": "24038"
  },
  {
    "name": "HERENTALS",
    "name_clean": "Herentals",
    "url": "https://nl.wikipedia.org/wiki/Station_Herentals",
    "lat": 51.181032791419824,
    "lon": 4.828855991363525,
    "region": "VLG",
    "province": "VAN",
    "city": "13011"
  },
  {
    "name": "HERGENRATH",
    "name_clean": "Hergenrath",
    "url": "https://nl.wikipedia.org/wiki/Station_Hergenrath",
    "lat": 50.70894778171646,
    "lon": 6.043450087308884,
    "region": "WAL",
    "province": "WLG",
    "city": "63040"
  },
  {
    "name": "HERNE",
    "name_clean": "Herne",
    "url": "https://nl.wikipedia.org/wiki/Station_Herne",
    "lat": 50.724229389029425,
    "lon": 4.013918822597816,
    "region": "VLG",
    "province": "VBR",
    "city": "23032"
  },
  {
    "name": "HERSEAUX",
    "name_clean": "Herseaux",
    "url": "https://nl.wikipedia.org/wiki/Station_Herseaux",
    "lat": 50.71377647007925,
    "lon": 3.24601873755455,
    "region": "WAL",
    "province": "WHT",
    "city": "54007"
  },
  {
    "name": "HERSTAL",
    "name_clean": "Herstal",
    "url": "https://nl.wikipedia.org/wiki/Station_Herstal",
    "lat": 50.66073327686322,
    "lon": 5.623001394633889,
    "region": "WAL",
    "province": "WLG",
    "city": "62051"
  },
  {
    "name": "HERZELE",
    "name_clean": "Herzele",
    "url": "https://nl.wikipedia.org/wiki/Station_Herzele",
    "lat": 50.89725263682441,
    "lon": 3.8802699744701385,
    "region": "VLG",
    "province": "VOV",
    "city": "41027"
  },
  {
    "name": "HEUSDEN",
    "name_clean": "Heusden",
    "url": "https://nl.wikipedia.org/wiki/Station_Heusden",
    "lat": 51.03821059091015,
    "lon": 5.281285643577576,
    "region": "VLG",
    "province": "VLI",
    "city": "71070"
  },
  {
    "name": "HEVER",
    "name_clean": "Hever",
    "url": "https://nl.wikipedia.org/wiki/Station_Hever",
    "lat": 50.9977808625155,
    "lon": 4.537818878889084,
    "region": "VLG",
    "province": "VBR",
    "city": "24014"
  },
  {
    "name": "HEVERLEE",
    "name_clean": "Heverlee",
    "url": "https://nl.wikipedia.org/wiki/Station_Heverlee",
    "lat": 50.862458945548546,
    "lon": 4.695673949449088,
    "region": "VLG",
    "province": "VBR",
    "city": "24062"
  },
  {
    "name": "HILLEGEM",
    "name_clean": "Hillegem",
    "url": "https://nl.wikipedia.org/wiki/Station_Hillegem",
    "lat": 50.89179356415071,
    "lon": 3.8590977361577643,
    "region": "VLG",
    "province": "VOV",
    "city": "41027"
  },
  {
    "name": "HOBOKEN-POLDER",
    "name_clean": "Hoboken-Polder",
    "url": "https://nl.wikipedia.org/wiki/Station_Hoboken-Polder",
    "lat": 51.182913243669354,
    "lon": 4.348399402158293,
    "region": "VLG",
    "province": "VAN",
    "city": "11002"
  },
  {
    "name": "HOEILAART",
    "name_clean": "Hoeilaart",
    "url": "https://nl.wikipedia.org/wiki/Station_Hoeilaart",
    "lat": 50.75985580382101,
    "lon": 4.468173980712891,
    "region": "VLG",
    "province": "VBR",
    "city": "23033"
  },
  {
    "name": "HOFSTADE",
    "name_clean": "Hofstade",
    "url": "https://nl.wikipedia.org/wiki/Station_Hofstade",
    "lat": 50.9885,
    "lon": 4.498583,
    "region": "VLG",
    "province": "VBR",
    "city": "23096"
  },
  {
    "name": "HOLLEKEN",
    "name_clean": "Holleken",
    "url": "https://nl.wikipedia.org/wiki/Station_Holleken",
    "lat": 50.76758256603961,
    "lon": 4.354118594783358,
    "region": "VLG",
    "province": "VBR",
    "city": "23100"
  },
  {
    "name": "HONY",
    "name_clean": "Hony",
    "url": "https://nl.wikipedia.org/wiki/Station_Hony",
    "lat": 50.539811817837425,
    "lon": 5.57352605857227,
    "region": "WAL",
    "province": "WLG",
    "city": "62032"
  },
  {
    "name": "HOURAING",
    "name_clean": "Houraing",
    "url": "https://nl.wikipedia.org/wiki/Station_Houraing",
    "lat": 50.70270609674806,
    "lon": 3.8352544605731964,
    "region": "WAL",
    "province": "WHT",
    "city": "55023"
  },
  {
    "name": "HOURPES",
    "name_clean": "Hourpes",
    "url": "https://nl.wikipedia.org/wiki/Station_Hourpes",
    "lat": 50.36475900623845,
    "lon": 4.308636879096753,
    "region": "WAL",
    "province": "WHT",
    "city": "56078"
  },
  {
    "name": "HOUYET",
    "name_clean": "Houyet",
    "url": "https://nl.wikipedia.org/wiki/Station_Houyet",
    "lat": 50.18958794906571,
    "lon": 5.006088316440582,
    "region": "WAL",
    "province": "WNA",
    "city": "91072"
  },
  {
    "name": "HOVE",
    "name_clean": "Hove",
    "url": "https://nl.wikipedia.org/wiki/Station_Hove",
    "lat": 51.15410223916141,
    "lon": 4.465173058572304,
    "region": "VLG",
    "province": "VAN",
    "city": "11021"
  },
  {
    "name": "HUIZINGEN",
    "name_clean": "Huizingen",
    "url": "https://nl.wikipedia.org/wiki/Station_Huizingen",
    "lat": 50.751692123177435,
    "lon": 4.266150845698803,
    "region": "VLG",
    "province": "VBR",
    "city": "23003"
  },
  {
    "name": "HUY",
    "name_clean": "Huy",
    "url": "https://nl.wikipedia.org/wiki/Station_Huy",
    "lat": 50.52662695214841,
    "lon": 5.232909321784973,
    "region": "WAL",
    "province": "WLG",
    "city": "61031"
  },
  {
    "name": "IDDERGEM",
    "name_clean": "Iddergem",
    "url": "https://nl.wikipedia.org/wiki/Station_Iddergem",
    "lat": 50.8772481694641,
    "lon": 4.0687353909015656,
    "region": "VLG",
    "province": "VOV",
    "city": "41011"
  },
  {
    "name": "IDEGEM",
    "name_clean": "Idegem",
    "url": "https://nl.wikipedia.org/wiki/Station_Idegem",
    "lat": 50.80152916368484,
    "lon": 3.9212635159492493,
    "region": "VLG",
    "province": "VOV",
    "city": "41018"
  },
  {
    "name": "IEPER",
    "name_clean": "Ieper",
    "url": "https://nl.wikipedia.org/wiki/Station_Ieper",
    "lat": 50.84789641261178,
    "lon": 2.8766772150993347,
    "region": "VLG",
    "province": "VWV",
    "city": "33011"
  },
  {
    "name": "INGELMUNSTER",
    "name_clean": "Ingelmunster",
    "url": "https://nl.wikipedia.org/wiki/Station_Ingelmunster",
    "lat": 50.91380301989739,
    "lon": 3.2557860016822815,
    "region": "VLG",
    "province": "VWV",
    "city": "36007"
  },
  {
    "name": "IZEGEM",
    "name_clean": "Izegem",
    "url": "https://nl.wikipedia.org/wiki/Station_Izegem",
    "lat": 50.92099218824821,
    "lon": 3.214769661426544,
    "region": "VLG",
    "province": "VWV",
    "city": "36008"
  },
  {
    "name": "JAMBES",
    "name_clean": "Jambes",
    "url": "https://nl.wikipedia.org/wiki/Station_Jambes",
    "lat": 50.45469659450843,
    "lon": 4.875828176736832,
    "region": "WAL",
    "province": "WNA",
    "city": "92094"
  },
  {
    "name": "JAMBES-EST",
    "name_clean": "Jambes-Est",
    "url": "https://nl.wikipedia.org/wiki/Station_Jambes-Est",
    "lat": 50.45473897355092,
    "lon": 4.880390707982315,
    "region": "WAL",
    "province": "WNA",
    "city": "92094"
  },
  {
    "name": "JAMIOULX",
    "name_clean": "Jamioulx",
    "url": "https://nl.wikipedia.org/wiki/Station_Jamioulx",
    "lat": 50.35296323226174,
    "lon": 4.411416672009068,
    "region": "WAL",
    "province": "WHT",
    "city": "56086"
  },
  {
    "name": "JEMAPPES",
    "name_clean": "Jemappes",
    "url": "https://nl.wikipedia.org/wiki/Station_Jemappes",
    "lat": 50.452651077384004,
    "lon": 3.8855848403833306,
    "region": "WAL",
    "province": "WHT",
    "city": "53053"
  },
  {
    "name": "ROCHEFORT-JEMELLE",
    "name_clean": "Rochefort-Jemelle",
    "url": "https://nl.wikipedia.org/wiki/Station_Rochefort-Jemelle",
    "lat": 50.16000117440413,
    "lon": 5.26719331741333,
    "region": "WAL",
    "province": "WNA",
    "city": "91114"
  },
  {
    "name": "JEMEPPE-SUR-MEUSE",
    "name_clean": "Jemeppe-sur-Meuse",
    "url": "https://nl.wikipedia.org/wiki/Station_Jemeppe-sur-Meuse",
    "lat": 50.618584802964165,
    "lon": 5.498125588843209,
    "region": "WAL",
    "province": "WLG",
    "city": "62096"
  },
  {
    "name": "JEMEPPE-SUR-SAMBRE",
    "name_clean": "Jemeppe-sur-Sambre",
    "url": "https://nl.wikipedia.org/wiki/Station_Jemeppe-sur-Sambre",
    "lat": 50.451486385875945,
    "lon": 4.663082884726464,
    "region": "WAL",
    "province": "WNA",
    "city": "92140"
  },
  {
    "name": "JETTE",
    "name_clean": "Jette",
    "url": "https://nl.wikipedia.org/wiki/Station_Jette",
    "lat": 50.880965,
    "lon": 4.328565,
    "region": "BRU",
    "city": "21010"
  },
  {
    "name": "JURBISE",
    "name_clean": "Jurbise",
    "url": "https://nl.wikipedia.org/wiki/Station_Jurbise",
    "lat": 50.53018675646194,
    "lon": 3.9104817416207425,
    "region": "WAL",
    "province": "WHT",
    "city": "53044"
  },
  {
    "name": "JUSLENVILLE",
    "name_clean": "Juslenville",
    "url": "https://nl.wikipedia.org/wiki/Station_Juslenville",
    "lat": 50.54472687366931,
    "lon": 5.810060352087021,
    "region": "WAL",
    "province": "WLG",
    "city": "63076"
  },
  {
    "name": "KALMTHOUT",
    "name_clean": "Kalmthout",
    "url": "https://nl.wikipedia.org/wiki/Station_Kalmthout",
    "lat": 51.39109645312985,
    "lon": 4.4668248295784,
    "region": "VLG",
    "province": "VAN",
    "city": "11022"
  },
  {
    "name": "KAPELLE-OP-DEN-BOS",
    "name_clean": "Kapelle-op-den-Bos",
    "url": "https://nl.wikipedia.org/wiki/Station_Kapelle-op-den-Bos",
    "lat": 51.010894310090784,
    "lon": 4.359218627214432,
    "region": "VLG",
    "province": "VBR",
    "city": "23039"
  },
  {
    "name": "KAPELLEN",
    "name_clean": "Kapellen",
    "url": "https://nl.wikipedia.org/wiki/Station_Kapellen",
    "lat": 51.31363862258928,
    "lon": 4.432619959115982,
    "region": "VLG",
    "province": "VAN",
    "city": "11023"
  },
  {
    "name": "KESSEL",
    "name_clean": "Kessel",
    "url": "https://nl.wikipedia.org/wiki/Station_Kessel",
    "lat": 51.15115602304731,
    "lon": 4.61880549788475,
    "region": "VLG",
    "province": "VAN",
    "city": "12026"
  },
  {
    "name": "KIEWIT",
    "name_clean": "Kiewit",
    "url": "https://nl.wikipedia.org/wiki/Station_Kiewit",
    "lat": 50.95451710020448,
    "lon": 5.34889742732048,
    "region": "VLG",
    "province": "VLI",
    "city": "71022"
  },
  {
    "name": "KIJKUIT",
    "name_clean": "Kijkuit",
    "url": "https://nl.wikipedia.org/wiki/Station_Kijkuit",
    "lat": 51.379106997750476,
    "lon": 4.467408210039139,
    "region": "VLG",
    "province": "VAN",
    "city": "11022"
  },
  {
    "name": "KNOKKE",
    "name_clean": "Knokke",
    "url": "https://nl.wikipedia.org/wiki/Station_Knokke",
    "lat": 51.33992206416406,
    "lon": 3.2854874432086945,
    "region": "VLG",
    "province": "VWV",
    "city": "31043"
  },
  {
    "name": "KOKSIJDE",
    "name_clean": "Koksijde",
    "url": "https://nl.wikipedia.org/wiki/Station_Koksijde",
    "lat": 51.07915272891615,
    "lon": 2.6531392335891724,
    "region": "VLG",
    "province": "VWV",
    "city": "38025"
  },
  {
    "name": "COMINES/KOMEN",
    "name_clean": "Komen",
    "url": "https://nl.wikipedia.org/wiki/Station_Komen_(Belgi%C3%AB)",
    "lat": 50.771596702231,
    "lon": 2.9985829442739487,
    "region": "WAL",
    "province": "WHT",
    "city": "54010"
  },
  {
    "name": "KONTICH-LINT",
    "name_clean": "Kontich-Lint",
    "url": "https://nl.wikipedia.org/wiki/Station_Kontich-Lint",
    "lat": 51.13408595439099,
    "lon": 4.476301074028015,
    "region": "VLG",
    "province": "VAN",
    "city": "11024"
  },
  {
    "name": "KORTEMARK",
    "name_clean": "Kortemark",
    "url": "https://nl.wikipedia.org/wiki/Station_Kortemark",
    "lat": 51.0252229613559,
    "lon": 3.043534755706787,
    "region": "VLG",
    "province": "VWV",
    "city": "32011"
  },
  {
    "name": "KORTENBERG",
    "name_clean": "Kortenberg",
    "url": "https://nl.wikipedia.org/wiki/Station_Kortenberg",
    "lat": 50.89300034432593,
    "lon": 4.543181955814362,
    "region": "VLG",
    "province": "VBR",
    "city": "24055"
  },
  {
    "name": "KORTRIJK",
    "name_clean": "Kortrijk",
    "url": "https://nl.wikipedia.org/wiki/Station_Kortrijk",
    "lat": 50.82456435922233,
    "lon": 3.264336884021759,
    "region": "VLG",
    "province": "VWV",
    "city": "34022"
  },
  {
    "name": "KWATRECHT",
    "name_clean": "Kwatrecht",
    "url": "https://nl.wikipedia.org/wiki/Station_Kwatrecht",
    "lat": 50.991800561616394,
    "lon": 3.8290706276893616,
    "region": "VLG",
    "province": "VOV",
    "city": "42025"
  },
  {
    "name": "LA HULPE",
    "name_clean": "La Hulpe",
    "url": "https://nl.wikipedia.org/wiki/Station_La Hulpe",
    "lat": 50.73823242653264,
    "lon": 4.496852159500122,
    "region": "WAL",
    "province": "WBR",
    "city": "25050"
  },
  {
    "name": "LA LOUVIERE-CENTRE",
    "name_clean": "La Louvière-Centre",
    "url": "https://nl.wikipedia.org/wiki/Station_La Louvière-Centre",
    "lat": 50.47773766019832,
    "lon": 4.180700182914734,
    "region": "WAL",
    "province": "WHT",
    "city": "55022"
  },
  {
    "name": "LA LOUVIERE-SUD",
    "name_clean": "La Louvière-Sud",
    "url": "https://nl.wikipedia.org/wiki/Station_La Louvière-Sud",
    "lat": 50.46564614998532,
    "lon": 4.1882626712322235,
    "region": "WAL",
    "province": "WHT",
    "city": "55022"
  },
  {
    "name": "LA ROCHE",
    "name_clean": "La Roche",
    "url": "https://nl.wikipedia.org/wiki/Station_La Roche",
    "lat": 50.61015130664613,
    "lon": 4.539393335580826,
    "region": "WAL",
    "province": "WBR",
    "city": "25023"
  },
  {
    "name": "LABUISSIERE",
    "name_clean": "Labuissière",
    "url": "https://nl.wikipedia.org/wiki/Station_Labuissière",
    "lat": 50.31614921930346,
    "lon": 4.185774992273991,
    "region": "WAL",
    "province": "WHT",
    "city": "56049"
  },
  {
    "name": "LANDEGEM",
    "name_clean": "Landegem",
    "url": "https://nl.wikipedia.org/wiki/Station_Landegem",
    "lat": 51.064748026830884,
    "lon": 3.5757313287957686,
    "region": "VLG",
    "province": "VOV",
    "city": "44083"
  },
  {
    "name": "LANDELIES",
    "name_clean": "Landelies",
    "url": "https://nl.wikipedia.org/wiki/Station_Landelies",
    "lat": 50.377339842042396,
    "lon": 4.350433051586151,
    "region": "WAL",
    "province": "WHT",
    "city": "52048"
  },
  {
    "name": "LANDEN",
    "name_clean": "Landen",
    "url": "https://nl.wikipedia.org/wiki/Station_Landen",
    "lat": 50.748004043641814,
    "lon": 5.080108751292414,
    "region": "VLG",
    "province": "VBR",
    "city": "24059"
  },
  {
    "name": "LANDSKOUTER",
    "name_clean": "Landskouter",
    "url": "https://nl.wikipedia.org/wiki/Station_Landskouter",
    "lat": 50.970570813884095,
    "lon": 3.7913748621940613,
    "region": "VLG",
    "province": "VOV",
    "city": "44052"
  },
  {
    "name": "LANGDORP",
    "name_clean": "Langdorp",
    "url": "https://nl.wikipedia.org/wiki/Station_Langdorp",
    "lat": 51.00257551954621,
    "lon": 4.864636659622192,
    "region": "VLG",
    "province": "VBR",
    "city": "24001"
  },
  {
    "name": "LEBBEKE",
    "name_clean": "Lebbeke",
    "url": "https://nl.wikipedia.org/wiki/Station_Lebbeke",
    "lat": 51.004947767380465,
    "lon": 4.134428054094315,
    "region": "VLG",
    "province": "VOV",
    "city": "42011"
  },
  {
    "name": "LE CAMPINAIRE",
    "name_clean": "Le Campinaire",
    "url": "https://nl.wikipedia.org/wiki/Station_Le_Campinaire",
    "lat": 50.42406017713951,
    "lon": 4.543496497109004,
    "region": "WAL",
    "province": "WHT",
    "city": "52018"
  },
  {
    "name": "LEDE",
    "name_clean": "Lede",
    "url": "https://nl.wikipedia.org/wiki/Station_Lede",
    "lat": 50.97060121658084,
    "lon": 3.985545337200165,
    "region": "VLG",
    "province": "VOV",
    "city": "41034"
  },
  {
    "name": "LEIGNON",
    "name_clean": "Leignon",
    "url": "https://nl.wikipedia.org/wiki/Station_Leignon",
    "lat": 50.267659,
    "lon": 5.10767,
    "region": "WAL",
    "province": "WNA",
    "city": "91030"
  },
  {
    "name": "LEMAN",
    "name_clean": "Leman",
    "url": "https://nl.wikipedia.org/wiki/Station_Leman",
    "lat": 50.59965886459944,
    "lon": 5.467465377690814,
    "region": "WAL",
    "province": "WLG",
    "city": "62120"
  },
  {
    "name": "LEMBEEK",
    "name_clean": "Lembeek",
    "url": "https://nl.wikipedia.org/wiki/Station_Lembeek",
    "lat": 50.71424218483697,
    "lon": 4.22076603778612,
    "region": "VLG",
    "province": "VBR",
    "city": "23027"
  },
  {
    "name": "LENS",
    "name_clean": "Lens",
    "url": "https://nl.wikipedia.org/wiki/Station_Lens",
    "lat": 50.55892241894711,
    "lon": 3.9033269039759944,
    "region": "WAL",
    "province": "WHT",
    "city": "53046"
  },
  {
    "name": "LEOPOLDSBURG",
    "name_clean": "Leopoldsburg",
    "url": "https://nl.wikipedia.org/wiki/Station_Leopoldsburg",
    "lat": 51.11747679970673,
    "lon": 5.258093923330307,
    "region": "VLG",
    "province": "VLI",
    "city": "71034"
  },
  {
    "name": "LESSINES",
    "name_clean": "Lessines",
    "url": "https://nl.wikipedia.org/wiki/Station_Lessines",
    "lat": 50.7131186085059,
    "lon": 3.837043626793843,
    "region": "WAL",
    "province": "WHT",
    "city": "55023"
  },
  {
    "name": "LEUVEN",
    "name_clean": "Leuven",
    "url": "https://nl.wikipedia.org/wiki/Station_Leuven",
    "lat": 50.88134113350503,
    "lon": 4.715586304664612,
    "region": "VLG",
    "province": "VBR",
    "city": "24062"
  },
  {
    "name": "LEUZE",
    "name_clean": "Leuze",
    "url": "https://nl.wikipedia.org/wiki/Station_Leuze",
    "lat": 50.60037846299515,
    "lon": 3.6170071363449097,
    "region": "WAL",
    "province": "WHT",
    "city": "57094"
  },
  {
    "name": "LEVAL",
    "name_clean": "Leval",
    "url": "https://nl.wikipedia.org/wiki/Station_Leval",
    "lat": 50.429591145028915,
    "lon": 4.210330128998862,
    "region": "WAL",
    "province": "WHT",
    "city": "56011"
  },
  {
    "name": "LIBRAMONT",
    "name_clean": "Libramont",
    "url": "https://nl.wikipedia.org/wiki/Station_Libramont",
    "lat": 49.92025530447924,
    "lon": 5.379348546266556,
    "region": "WAL",
    "province": "WLX",
    "city": "84077"
  },
  {
    "name": "LICHTERVELDE",
    "name_clean": "Lichtervelde",
    "url": "https://nl.wikipedia.org/wiki/Station_Lichtervelde",
    "lat": 51.0251352346193,
    "lon": 3.127325624227524,
    "region": "VLG",
    "province": "VWV",
    "city": "36011"
  },
  {
    "name": "LIEDEKERKE",
    "name_clean": "Liedekerke",
    "url": "https://nl.wikipedia.org/wiki/Station_Liedekerke",
    "lat": 50.88284300967269,
    "lon": 4.095397889614105,
    "region": "VLG",
    "province": "VBR",
    "city": "23044"
  },
  {
    "name": "LIER",
    "name_clean": "Lier",
    "url": "https://nl.wikipedia.org/wiki/Station_Lier",
    "lat": 51.13586325905456,
    "lon": 4.562176018953323,
    "region": "VLG",
    "province": "VAN",
    "city": "12021"
  },
  {
    "name": "LIERDE",
    "name_clean": "Lierde",
    "url": "https://nl.wikipedia.org/wiki/Station_Lierde",
    "lat": 50.81595626091345,
    "lon": 3.827104678251885,
    "region": "VLG",
    "province": "VOV",
    "city": "45063"
  },
  {
    "name": "LIERS",
    "name_clean": "Liers",
    "url": "https://nl.wikipedia.org/wiki/Station_Liers",
    "lat": 50.69822794668894,
    "lon": 5.568999499082565,
    "region": "WAL",
    "province": "WLG",
    "city": "62051"
  },
  {
    "name": "LIGNY",
    "name_clean": "Ligny",
    "url": "https://nl.wikipedia.org/wiki/Station_Ligny",
    "lat": 50.51177486181524,
    "lon": 4.5659661525291995,
    "region": "WAL",
    "province": "WNA",
    "city": "92114"
  },
  {
    "name": "LILLOIS",
    "name_clean": "Lillois",
    "url": "https://nl.wikipedia.org/wiki/Station_Lillois",
    "lat": 50.64494748524272,
    "lon": 4.36482846736908,
    "region": "WAL",
    "province": "WBR",
    "city": "25014"
  },
  {
    "name": "LIMAL",
    "name_clean": "Limal",
    "url": "https://nl.wikipedia.org/wiki/Station_Limal",
    "lat": 50.69121613980592,
    "lon": 4.575330917537258,
    "region": "WAL",
    "province": "WBR",
    "city": "25112"
  },
  {
    "name": "LINKEBEEK",
    "name_clean": "Linkebeek",
    "url": "https://nl.wikipedia.org/wiki/Station_Linkebeek",
    "lat": 50.773630903671254,
    "lon": 4.339618384838104,
    "region": "VLG",
    "province": "VBR",
    "city": "23100"
  },
  {
    "name": "LISSEWEGE",
    "name_clean": "Lissewege",
    "url": "https://nl.wikipedia.org/wiki/Station_Lissewege",
    "lat": 51.29471219155607,
    "lon": 3.1945609997114843,
    "region": "VLG",
    "province": "VWV",
    "city": "31005"
  },
  {
    "name": "LIEGE-GUILLEMINS",
    "name_clean": "Liège-Guillemins",
    "url": "https://nl.wikipedia.org/wiki/Station_Liège-Guillemins",
    "lat": 50.62443411850872,
    "lon": 5.56670755147934,
    "region": "WAL",
    "province": "WLG",
    "city": "62063"
  },
  {
    "name": "LIEGE-CARRE",
    "name_clean": "Liège-Carré",
    "url": "https://nl.wikipedia.org/wiki/Station_Liège-Carré",
    "lat": 50.64083,
    "lon": 5.56194,
    "region": "WAL",
    "province": "WLG",
    "city": "62063"
  },
  {
    "name": "LIEGE-SAINT-LAMBERT",
    "name_clean": "Liège-Saint-Lambert",
    "url": "https://nl.wikipedia.org/wiki/Station_Liège-Saint-Lambert",
    "lat": 50.646393,
    "lon": 5.570389,
    "region": "WAL",
    "province": "WLG",
    "city": "62063"
  },
  {
    "name": "LOBBES",
    "name_clean": "Lobbes",
    "url": "https://nl.wikipedia.org/wiki/Station_Lobbes",
    "lat": 50.34606147331032,
    "lon": 4.261643197337889,
    "region": "WAL",
    "province": "WHT",
    "city": "56044"
  },
  {
    "name": "LODELINSART",
    "name_clean": "Lodelinsart",
    "url": "https://nl.wikipedia.org/wiki/Station_Lodelinsart",
    "lat": 50.43233241976083,
    "lon": 4.462910145521164,
    "region": "WAL",
    "province": "WHT",
    "city": "52011"
  },
  {
    "name": "LOKEREN",
    "name_clean": "Lokeren",
    "url": "https://nl.wikipedia.org/wiki/Station_Lokeren",
    "lat": 51.107402176013,
    "lon": 3.9865297079086304,
    "region": "VLG",
    "province": "VOV",
    "city": "46014"
  },
  {
    "name": "LOMMEL",
    "name_clean": "Lommel",
    "url": "https://nl.wikipedia.org/wiki/Station_Lommel",
    "lat": 51.21173202398642,
    "lon": 5.31207874417305,
    "region": "VLG",
    "province": "VLI",
    "city": "72020"
  },
  {
    "name": "LONDERZEEL",
    "name_clean": "Londerzeel",
    "url": "https://nl.wikipedia.org/wiki/Station_Londerzeel",
    "lat": 51.00927168079465,
    "lon": 4.298568516969681,
    "region": "VLG",
    "province": "VBR",
    "city": "23045"
  },
  {
    "name": "LONZEE",
    "name_clean": "Lonzée",
    "url": "https://nl.wikipedia.org/wiki/Station_Lonzée",
    "lat": 50.551406426059295,
    "lon": 4.721144915055788,
    "region": "WAL",
    "province": "WNA",
    "city": "92142"
  },
  {
    "name": "LOT",
    "name_clean": "Lot",
    "url": "https://nl.wikipedia.org/wiki/Station_Lot",
    "lat": 50.76636046352507,
    "lon": 4.273699074983597,
    "region": "VLG",
    "province": "VBR",
    "city": "23003"
  },
  {
    "name": "LOUVAIN-LA-NEUVE",
    "name_clean": "Louvain-la-Neuve",
    "url": "https://nl.wikipedia.org/wiki/Station_Louvain-la-Neuve",
    "lat": 50.669695186058625,
    "lon": 4.6160562336444855,
    "region": "WAL",
    "province": "WBR",
    "city": "25121"
  },
  {
    "name": "LUSTIN",
    "name_clean": "Lustin",
    "url": "https://nl.wikipedia.org/wiki/Station_Lustin",
    "lat": 50.36897294315933,
    "lon": 4.877159893512726,
    "region": "WAL",
    "province": "WNA",
    "city": "92101"
  },
  {
    "name": "LUTTRE",
    "name_clean": "Luttre",
    "url": "https://nl.wikipedia.org/wiki/Station_Luttre",
    "lat": 50.5062743631915,
    "lon": 4.383960664272308,
    "region": "WAL",
    "province": "WHT",
    "city": "52055"
  },
  {
    "name": "MAFFLE",
    "name_clean": "Maffle",
    "url": "https://nl.wikipedia.org/wiki/Station_Maffle",
    "lat": 50.61448620756759,
    "lon": 3.8000430618790233,
    "region": "WAL",
    "province": "WHT",
    "city": "51004"
  },
  {
    "name": "MALDEREN",
    "name_clean": "Malderen",
    "url": "https://nl.wikipedia.org/wiki/Station_Malderen",
    "lat": 51.014428795902674,
    "lon": 4.229458719491959,
    "region": "VLG",
    "province": "VBR",
    "city": "23045"
  },
  {
    "name": "MANAGE",
    "name_clean": "Manage",
    "url": "https://nl.wikipedia.org/wiki/Station_Manage",
    "lat": 50.50585113248381,
    "lon": 4.234824382480156,
    "region": "WAL",
    "province": "WHT",
    "city": "52043"
  },
  {
    "name": "MARBEHAN",
    "name_clean": "Marbehan",
    "url": "https://nl.wikipedia.org/wiki/Station_Marbehan",
    "lat": 49.72729850092399,
    "lon": 5.539402636868658,
    "region": "WAL",
    "province": "WLX",
    "city": "85046"
  },
  {
    "name": "MARCHE-EN-FAMENNE",
    "name_clean": "Marche-en-Famenne",
    "url": "https://nl.wikipedia.org/wiki/Station_Marche-en-Famenne",
    "lat": 50.22239145663752,
    "lon": 5.345786458537532,
    "region": "WAL",
    "province": "WLX",
    "city": "83034"
  },
  {
    "name": "MARCHE-LES-DAMES",
    "name_clean": "Marche-les-Dames",
    "url": "https://nl.wikipedia.org/wiki/Station_Marche-les-Dames",
    "lat": 50.48079803062667,
    "lon": 4.96532678604126,
    "region": "WAL",
    "province": "WNA",
    "city": "92094"
  },
  {
    "name": "MARCHE-LEZ-ECAUSSINNES",
    "name_clean": "Marche-lez-Ecaussinnes",
    "url": "https://nl.wikipedia.org/wiki/Station_Marche-lez-Ecaussinnes",
    "lat": 50.54639893750823,
    "lon": 4.176966547966003,
    "region": "WAL",
    "province": "WHT",
    "city": "55050"
  },
  {
    "name": "MARCHIENNE-ZONE",
    "name_clean": "Marchienne-Zône",
    "url": "https://nl.wikipedia.org/wiki/Station_Marchienne-Zône",
    "lat": 50.397874719036054,
    "lon": 4.390414197604741,
    "region": "WAL",
    "province": "WHT",
    "city": "52011"
  },
  {
    "name": "MARCHIENNE-AU-PONT",
    "name_clean": "Marchienne-au-Pont",
    "url": "https://nl.wikipedia.org/wiki/Station_Marchienne-au-Pont",
    "lat": 50.41217537246747,
    "lon": 4.393986528685673,
    "region": "WAL",
    "province": "WHT",
    "city": "52011"
  },
  {
    "name": "MARIA-AALTER",
    "name_clean": "Maria-Aalter",
    "url": "https://nl.wikipedia.org/wiki/Station_Maria-Aalter",
    "lat": 51.10767920280319,
    "lon": 3.3862580358982086,
    "region": "VLG",
    "province": "VOV",
    "city": "44084"
  },
  {
    "name": "MARIEMBOURG",
    "name_clean": "Mariembourg",
    "url": "https://nl.wikipedia.org/wiki/Station_Mariembourg",
    "lat": 50.095758068611495,
    "lon": 4.524462819099426,
    "region": "WAL",
    "province": "WNA",
    "city": "93014"
  },
  {
    "name": "MARLOIE",
    "name_clean": "Marloie",
    "url": "https://nl.wikipedia.org/wiki/Station_Marloie",
    "lat": 50.20251132639345,
    "lon": 5.313960313796997,
    "region": "WAL",
    "province": "WLX",
    "city": "83034"
  },
  {
    "name": "MASNUY-SAINT-PIERRE",
    "name_clean": "Masnuy-Saint-Pierre",
    "url": "https://nl.wikipedia.org/wiki/Station_Masnuy-Saint-Pierre",
    "lat": 50.53641469290898,
    "lon": 3.9616116158773593,
    "region": "WAL",
    "province": "WHT",
    "city": "53044"
  },
  {
    "name": "MAUBRAY",
    "name_clean": "Maubray",
    "url": "https://nl.wikipedia.org/wiki/Station_Maubray",
    "lat": 50.547614128650125,
    "lon": 3.4956883694635508,
    "region": "WAL",
    "province": "WHT",
    "city": "57003"
  },
  {
    "name": "MAZY",
    "name_clean": "Mazy",
    "url": "https://nl.wikipedia.org/wiki/Station_Mazy",
    "lat": 50.51286836672845,
    "lon": 4.675613885137977,
    "region": "WAL",
    "province": "WNA",
    "city": "92142"
  },
  {
    "name": "MECHELEN",
    "name_clean": "Mechelen",
    "url": "https://nl.wikipedia.org/wiki/Station_Mechelen",
    "lat": 51.017901425296444,
    "lon": 4.483312368392944,
    "region": "VLG",
    "province": "VAN",
    "city": "12025"
  },
  {
    "name": "MECHELEN-NEKKERSPOEL",
    "name_clean": "Mechelen-Nekkerspoel",
    "url": "https://nl.wikipedia.org/wiki/Station_Mechelen-Nekkerspoel",
    "lat": 51.02951561733609,
    "lon": 4.490361985979234,
    "region": "VLG",
    "province": "VAN",
    "city": "12025"
  },
  {
    "name": "MEISER",
    "name_clean": "Meiser",
    "url": "https://nl.wikipedia.org/wiki/Station_Meiser",
    "lat": 50.85515154556487,
    "lon": 4.394288839549517,
    "region": "BRU",
    "city": "21015"
  },
  {
    "name": "MELKOUWEN",
    "name_clean": "Melkouwen",
    "url": "https://nl.wikipedia.org/wiki/Station_Melkouwen",
    "lat": 51.09490791756928,
    "lon": 4.671542519879836,
    "region": "VLG",
    "province": "VAN",
    "city": "12002"
  },
  {
    "name": "MELLE",
    "name_clean": "Melle",
    "url": "https://nl.wikipedia.org/wiki/Station_Melle",
    "lat": 51.00246960526123,
    "lon": 3.797757178544998,
    "region": "VLG",
    "province": "VOV",
    "city": "44040"
  },
  {
    "name": "MELREUX-HOTTON",
    "name_clean": "Melreux-Hotton",
    "url": "https://nl.wikipedia.org/wiki/Station_Melreux-Hotton",
    "lat": 50.28401864796582,
    "lon": 5.440786246028779,
    "region": "WAL",
    "province": "WLX",
    "city": "83028"
  },
  {
    "name": "MELSELE",
    "name_clean": "Melsele",
    "url": "https://nl.wikipedia.org/wiki/Station_Melsele",
    "lat": 51.210784411341606,
    "lon": 4.287105457085772,
    "region": "VLG",
    "province": "VOV",
    "city": "46003"
  },
  {
    "name": "MENEN",
    "name_clean": "Menen",
    "url": "https://nl.wikipedia.org/wiki/Station_Menen",
    "lat": 50.79931266428928,
    "lon": 3.1138890981674194,
    "region": "VLG",
    "province": "VWV",
    "city": "34027"
  },
  {
    "name": "MERCHTEM",
    "name_clean": "Merchtem",
    "url": "https://nl.wikipedia.org/wiki/Station_Merchtem",
    "lat": 50.95385476326876,
    "lon": 4.223970919847488,
    "region": "VLG",
    "province": "VBR",
    "city": "23052"
  },
  {
    "name": "MERELBEKE",
    "name_clean": "Merelbeke",
    "url": "https://nl.wikipedia.org/wiki/Station_Merelbeke",
    "lat": 51.019944721735655,
    "lon": 3.764311373233795,
    "region": "VLG",
    "province": "VOV",
    "city": "44021"
  },
  {
    "name": "MERODE",
    "name_clean": "Merode",
    "url": "https://nl.wikipedia.org/wiki/Station_Merode",
    "lat": 50.83928249412362,
    "lon": 4.398931413888931,
    "region": "BRU",
    "city": "21005"
  },
  {
    "name": "MESSANCY",
    "name_clean": "Messancy",
    "url": "https://nl.wikipedia.org/wiki/Station_Messancy",
    "lat": 49.592766015762614,
    "lon": 5.818644762039185,
    "region": "WAL",
    "province": "WLX",
    "city": "81015"
  },
  {
    "name": "MILMORT",
    "name_clean": "Milmort",
    "url": "https://nl.wikipedia.org/wiki/Station_Milmort",
    "lat": 50.6929137685008,
    "lon": 5.600022020302049,
    "region": "WAL",
    "province": "WLG",
    "city": "62051"
  },
  {
    "name": "MOENSBERG",
    "name_clean": "Moensberg",
    "url": "https://nl.wikipedia.org/wiki/Station_Moensberg",
    "lat": 50.778661196880634,
    "lon": 4.331728911345863,
    "region": "BRU",
    "city": "21016"
  },
  {
    "name": "MOUSCRON/MOESKROEN",
    "name_clean": "Moeskroen",
    "url": "https://nl.wikipedia.org/wiki/Station_Moeskroen",
    "lat": 50.74011202895435,
    "lon": 3.2274165192577584,
    "region": "WAL",
    "province": "WHT",
    "city": "54007"
  },
  {
    "name": "MOL",
    "name_clean": "Mol",
    "url": "https://nl.wikipedia.org/wiki/Station_Mol",
    "lat": 51.19052569373682,
    "lon": 5.115169733762741,
    "region": "VLG",
    "province": "VAN",
    "city": "13025"
  },
  {
    "name": "MOLLEM",
    "name_clean": "Mollem",
    "url": "https://nl.wikipedia.org/wiki/Station_Mollem",
    "lat": 50.93295540202679,
    "lon": 4.216806440805158,
    "region": "VLG",
    "province": "VBR",
    "city": "23002"
  },
  {
    "name": "MOMALLE",
    "name_clean": "Momalle",
    "url": "https://nl.wikipedia.org/wiki/Station_Momalle",
    "lat": 50.66998889517638,
    "lon": 5.366858377172207,
    "region": "WAL",
    "province": "WLG",
    "city": "64025"
  },
  {
    "name": "MONS",
    "name_clean": "Mons",
    "url": "https://nl.wikipedia.org/wiki/Station_Mons",
    "lat": 50.453836317362146,
    "lon": 3.9423704892396927,
    "region": "WAL",
    "province": "WHT",
    "city": "53053"
  },
  {
    "name": "MONT-SAINT-GUIBERT",
    "name_clean": "Mont-Saint-Guibert",
    "url": "https://nl.wikipedia.org/wiki/Station_Mont-Saint-Guibert",
    "lat": 50.63825965689229,
    "lon": 4.612903739362423,
    "region": "WAL",
    "province": "WBR",
    "city": "25068"
  },
  {
    "name": "MOORTSELE",
    "name_clean": "Moortsele",
    "url": "https://nl.wikipedia.org/wiki/Station_Moortsele",
    "lat": 50.953571585679086,
    "lon": 3.781261571283494,
    "region": "VLG",
    "province": "VOV",
    "city": "44052"
  },
  {
    "name": "MORLANWELZ",
    "name_clean": "Morlanwelz",
    "url": "https://nl.wikipedia.org/wiki/Station_Morlanwelz",
    "lat": 50.45835611977733,
    "lon": 4.247033894062042,
    "region": "WAL",
    "province": "WHT",
    "city": "56087"
  },
  {
    "name": "MORTSEL",
    "name_clean": "Mortsel",
    "url": "https://nl.wikipedia.org/wiki/Station_Mortsel",
    "lat": 51.18289615506257,
    "lon": 4.44910095423586,
    "region": "VLG",
    "province": "VAN",
    "city": "11029"
  },
  {
    "name": "MORTSEL-DEURNESTEENWEG",
    "name_clean": "Mortsel-Deurnesteenweg",
    "url": "https://nl.wikipedia.org/wiki/Station_Mortsel-Deurnesteenweg",
    "lat": 51.18238795917669,
    "lon": 4.447258785367012,
    "region": "VLG",
    "province": "VAN",
    "city": "11029"
  },
  {
    "name": "MORTSEL-LIERSESTEENWEG",
    "name_clean": "Mortsel-Liersesteenweg",
    "url": "https://nl.wikipedia.org/wiki/Station_Mortsel-Liersesteenweg",
    "lat": 51.16951351826775,
    "lon": 4.469275698065758,
    "region": "VLG",
    "province": "VAN",
    "city": "11029"
  },
  {
    "name": "MORTSEL-OUDE-GOD",
    "name_clean": "Mortsel-Oude-God",
    "url": "https://nl.wikipedia.org/wiki/Station_Mortsel-Oude-God",
    "lat": 51.17116963557114,
    "lon": 4.455787539482117,
    "region": "VLG",
    "province": "VAN",
    "city": "11029"
  },
  {
    "name": "MOUSTIER",
    "name_clean": "Moustier",
    "url": "https://nl.wikipedia.org/wiki/Station_Moustier",
    "lat": 50.452929060247264,
    "lon": 4.694375395774841,
    "region": "WAL",
    "province": "WNA",
    "city": "92140"
  },
  {
    "name": "MUIZEN",
    "name_clean": "Muizen",
    "url": "https://nl.wikipedia.org/wiki/Station_Muizen",
    "lat": 51.00831546382005,
    "lon": 4.513982716474743,
    "region": "VLG",
    "province": "VAN",
    "city": "12025"
  },
  {
    "name": "MUNKZWALM",
    "name_clean": "Munkzwalm",
    "url": "https://nl.wikipedia.org/wiki/Station_Munkzwalm",
    "lat": 50.875634890413316,
    "lon": 3.732717797649002,
    "region": "VLG",
    "province": "VOV",
    "city": "45065"
  },
  {
    "name": "MERY",
    "name_clean": "Méry",
    "url": "https://nl.wikipedia.org/wiki/Station_Méry",
    "lat": 50.54760820667094,
    "lon": 5.587188899517059,
    "region": "WAL",
    "province": "WLG",
    "city": "62032"
  },
  {
    "name": "MEVERGNIES-ATTRE",
    "name_clean": "Mévergnies-Attre",
    "url": "https://nl.wikipedia.org/wiki/Station_Mévergnies-Attre",
    "lat": 50.59981834827771,
    "lon": 3.8346657156944275,
    "region": "WAL",
    "province": "WHT",
    "city": "51012"
  },
  {
    "name": "NAMUR",
    "name_clean": "Namur",
    "url": "https://nl.wikipedia.org/wiki/Station_Namur",
    "lat": 50.469083744802425,
    "lon": 4.862456023693085,
    "region": "WAL",
    "province": "WNA",
    "city": "92094"
  },
  {
    "name": "NAMECHE",
    "name_clean": "Namêche",
    "url": "https://nl.wikipedia.org/wiki/Station_Namêche",
    "lat": 50.470181468897415,
    "lon": 4.997507929801941,
    "region": "WAL",
    "province": "WNA",
    "city": "92003"
  },
  {
    "name": "NANINNE",
    "name_clean": "Naninne",
    "url": "https://nl.wikipedia.org/wiki/Station_Naninne",
    "lat": 50.41965423848605,
    "lon": 4.929891189105774,
    "region": "WAL",
    "province": "WNA",
    "city": "92094"
  },
  {
    "name": "NATOYE",
    "name_clean": "Natoye",
    "url": "https://nl.wikipedia.org/wiki/Station_Natoye",
    "lat": 50.34305908219549,
    "lon": 5.061241895377634,
    "region": "WAL",
    "province": "WNA",
    "city": "91059"
  },
  {
    "name": "NEERPELT",
    "name_clean": "Neerpelt",
    "url": "https://nl.wikipedia.org/wiki/Station_Neerpelt",
    "lat": 51.2212824391628,
    "lon": 5.436975806951523,
    "region": "VLG",
    "province": "VLI",
    "city": "72043"
  },
  {
    "name": "NEERWINDEN",
    "name_clean": "Neerwinden",
    "url": "https://nl.wikipedia.org/wiki/Station_Neerwinden",
    "lat": 50.76381241104131,
    "lon": 5.036574351443733,
    "region": "VLG",
    "province": "VBR",
    "city": "24059"
  },
  {
    "name": "NESSONVAUX",
    "name_clean": "Nessonvaux",
    "url": "https://nl.wikipedia.org/wiki/Station_Nessonvaux",
    "lat": 50.57204262120168,
    "lon": 5.742188358949761,
    "region": "WAL",
    "province": "WLG",
    "city": "62122"
  },
  {
    "name": "NEUFCHATEAU",
    "name_clean": "Neufchâteau",
    "url": "https://nl.wikipedia.org/wiki/Station_Neufchâteau",
    "lat": 49.85414430801759,
    "lon": 5.452754953084423,
    "region": "WAL",
    "province": "WLX",
    "city": "84043"
  },
  {
    "name": "NEUFVILLES",
    "name_clean": "Neufvilles",
    "url": "https://nl.wikipedia.org/wiki/Station_Neufvilles",
    "lat": 50.543438270259074,
    "lon": 4.010299444198608,
    "region": "WAL",
    "province": "WHT",
    "city": "55040"
  },
  {
    "name": "NIEL",
    "name_clean": "Niel",
    "url": "https://nl.wikipedia.org/wiki/Station_Niel",
    "lat": 51.11159613336967,
    "lon": 4.3385910987854,
    "region": "VLG",
    "province": "VAN",
    "city": "11030"
  },
  {
    "name": "NIEUWKERKEN-WAAS",
    "name_clean": "Nieuwkerken-Waas",
    "url": "https://nl.wikipedia.org/wiki/Station_Nieuwkerken-Waas",
    "lat": 51.18538562490696,
    "lon": 4.1850686577091665,
    "region": "VLG",
    "province": "VOV",
    "city": "46021"
  },
  {
    "name": "NIJLEN",
    "name_clean": "Nijlen",
    "url": "https://nl.wikipedia.org/wiki/Station_Nijlen",
    "lat": 51.159856905311365,
    "lon": 4.666635990142822,
    "region": "VLG",
    "province": "VAN",
    "city": "12026"
  },
  {
    "name": "NIMY",
    "name_clean": "Nimy",
    "url": "https://nl.wikipedia.org/wiki/Station_Nimy",
    "lat": 50.47160407016153,
    "lon": 3.955818209147651,
    "region": "WAL",
    "province": "WHT",
    "city": "53053"
  },
  {
    "name": "NINOVE",
    "name_clean": "Ninove",
    "url": "https://nl.wikipedia.org/wiki/Station_Ninove",
    "lat": 50.83924339153679,
    "lon": 4.026279454220912,
    "region": "VLG",
    "province": "VOV",
    "city": "41048"
  },
  {
    "name": "NIVELLES",
    "name_clean": "Nivelles",
    "url": "https://nl.wikipedia.org/wiki/Station_Nivelles",
    "lat": 50.59988312105609,
    "lon": 4.335034181930837,
    "region": "WAL",
    "province": "WBR",
    "city": "25072"
  },
  {
    "name": "NOORDERKEMPEN",
    "name_clean": "Noorderkempen",
    "url": "https://nl.wikipedia.org/wiki/Station_Noorderkempen",
    "lat": 51.35729697068092,
    "lon": 4.632789194583893,
    "region": "VLG",
    "province": "VAN",
    "city": "11009"
  },
  {
    "name": "NOSSEGEM",
    "name_clean": "Nossegem",
    "url": "https://nl.wikipedia.org/wiki/Station_Nossegem",
    "lat": 50.88373988164852,
    "lon": 4.5074911415576935,
    "region": "VLG",
    "province": "VBR",
    "city": "23094"
  },
  {
    "name": "OBAIX-BUZET",
    "name_clean": "Obaix-Buzet",
    "url": "https://nl.wikipedia.org/wiki/Station_Obaix-Buzet",
    "lat": 50.535435337116816,
    "lon": 4.36378669051885,
    "region": "WAL",
    "province": "WHT",
    "city": "52055"
  },
  {
    "name": "OBOURG",
    "name_clean": "Obourg",
    "url": "https://nl.wikipedia.org/wiki/Station_Obourg",
    "lat": 50.46988481814932,
    "lon": 4.007379630700143,
    "region": "WAL",
    "province": "WHT",
    "city": "53053"
  },
  {
    "name": "OKEGEM",
    "name_clean": "Okegem",
    "url": "https://nl.wikipedia.org/wiki/Station_Okegem",
    "lat": 50.85652284449257,
    "lon": 4.053736807034966,
    "region": "VLG",
    "province": "VOV",
    "city": "41048"
  },
  {
    "name": "OLEN",
    "name_clean": "Olen",
    "url": "https://nl.wikipedia.org/wiki/Station_Olen",
    "lat": 51.17403775681645,
    "lon": 4.9018245051232725,
    "region": "VLG",
    "province": "VAN",
    "city": "13029"
  },
  {
    "name": "OOSTENDE",
    "name_clean": "Oostende",
    "url": "https://nl.wikipedia.org/wiki/Station_Oostende",
    "lat": 51.22925290212333,
    "lon": 2.9257629811763763,
    "region": "VLG",
    "province": "VWV",
    "city": "35013"
  },
  {
    "name": "OOSTKAMP",
    "name_clean": "Oostkamp",
    "url": "https://nl.wikipedia.org/wiki/Station_Oostkamp",
    "lat": 51.15429377218359,
    "lon": 3.257331795218306,
    "region": "VLG",
    "province": "VWV",
    "city": "31022"
  },
  {
    "name": "OPWIJK",
    "name_clean": "Opwijk",
    "url": "https://nl.wikipedia.org/wiki/Station_Opwijk",
    "lat": 50.97470708684202,
    "lon": 4.187071770429611,
    "region": "VLG",
    "province": "VBR",
    "city": "23060"
  },
  {
    "name": "OTTIGNIES",
    "name_clean": "Ottignies",
    "url": "https://nl.wikipedia.org/wiki/Station_Ottignies",
    "lat": 50.67347834563216,
    "lon": 4.5695152328466975,
    "region": "WAL",
    "province": "WBR",
    "city": "25121"
  },
  {
    "name": "OUD-HEVERLEE",
    "name_clean": "Oud-Heverlee",
    "url": "https://nl.wikipedia.org/wiki/Station_Oud-Heverlee",
    "lat": 50.835523313317864,
    "lon": 4.65328055814166,
    "region": "VLG",
    "province": "VBR",
    "city": "24086"
  },
  {
    "name": "OUDEGEM",
    "name_clean": "Oudegem",
    "url": "https://nl.wikipedia.org/wiki/Station_Oudegem",
    "lat": 51.01515354736891,
    "lon": 4.064032137393951,
    "region": "VLG",
    "province": "VOV",
    "city": "42006"
  },
  {
    "name": "OUDENAARDE",
    "name_clean": "Oudenaarde",
    "url": "https://nl.wikipedia.org/wiki/Station_Oudenaarde",
    "lat": 50.85017072300418,
    "lon": 3.6008012294769287,
    "region": "VLG",
    "province": "VOV",
    "city": "45035"
  },
  {
    "name": "OUGREE",
    "name_clean": "Ougrée",
    "url": "https://nl.wikipedia.org/wiki/Station_Ougrée",
    "lat": 50.605418,
    "lon": 5.536818,
    "region": "WAL",
    "province": "WLG",
    "city": "62096"
  },
  {
    "name": "OVERPELT",
    "name_clean": "Overpelt",
    "url": "https://nl.wikipedia.org/wiki/Station_Overpelt",
    "lat": 51.215590566384996,
    "lon": 5.423602312803268,
    "region": "VLG",
    "province": "VLI",
    "city": "72043"
  },
  {
    "name": "PALISEUL",
    "name_clean": "Paliseul",
    "url": "https://nl.wikipedia.org/wiki/Station_Paliseul",
    "lat": 49.895271657712506,
    "lon": 5.1185086286642445,
    "region": "WAL",
    "province": "WLX",
    "city": "84050"
  },
  {
    "name": "PAPIGNIES",
    "name_clean": "Papignies",
    "url": "https://nl.wikipedia.org/wiki/Station_Papignies",
    "lat": 50.68636784295914,
    "lon": 3.8231660585722693,
    "region": "WAL",
    "province": "WHT",
    "city": "55023"
  },
  {
    "name": "PEPINSTER",
    "name_clean": "Pepinster",
    "url": "https://nl.wikipedia.org/wiki/Station_Pepinster",
    "lat": 50.56813377955549,
    "lon": 5.806370973587036,
    "region": "WAL",
    "province": "WLG",
    "city": "63058"
  },
  {
    "name": "PEPINSTER-CITE",
    "name_clean": "Pepinster-Cité",
    "url": "https://nl.wikipedia.org/wiki/Station_Pepinster-Cité",
    "lat": 50.56356441596788,
    "lon": 5.804359316825867,
    "region": "WAL",
    "province": "WLG",
    "city": "63058"
  },
  {
    "name": "PHILIPPEVILLE",
    "name_clean": "Philippeville",
    "url": "https://nl.wikipedia.org/wiki/Station_Philippeville",
    "lat": 50.191547046096765,
    "lon": 4.536182317502494,
    "region": "WAL",
    "province": "WNA",
    "city": "93056"
  },
  {
    "name": "PIETON",
    "name_clean": "Piéton",
    "url": "https://nl.wikipedia.org/wiki/Station_Piéton",
    "lat": 50.43502798862715,
    "lon": 4.288794547319412,
    "region": "WAL",
    "province": "WHT",
    "city": "52010"
  },
  {
    "name": "POIX-SAINT-HUBERT",
    "name_clean": "Poix-Saint-Hubert",
    "url": "https://nl.wikipedia.org/wiki/Station_Poix-Saint-Hubert",
    "lat": 50.02004374147631,
    "lon": 5.292145907878876,
    "region": "WAL",
    "province": "WLX",
    "city": "84059"
  },
  {
    "name": "PONT-DE-SERAING",
    "name_clean": "Pont-de-Seraing",
    "url": "https://nl.wikipedia.org/wiki/Station_Pont-de-Seraing",
    "lat": 50.61972,
    "lon": 5.50972,
    "region": "WAL",
    "province": "WLG",
    "city": "62096"
  },
  {
    "name": "PONT-A-CELLES",
    "name_clean": "Pont-à-Celles",
    "url": "https://nl.wikipedia.org/wiki/Station_Pont-à-Celles",
    "lat": 50.512819787993,
    "lon": 4.362410816550209,
    "region": "WAL",
    "province": "WHT",
    "city": "52055"
  },
  {
    "name": "POPERINGE",
    "name_clean": "Poperinge",
    "url": "https://nl.wikipedia.org/wiki/Station_Poperinge",
    "lat": 50.854547146067716,
    "lon": 2.736007422208786,
    "region": "VLG",
    "province": "VWV",
    "city": "33021"
  },
  {
    "name": "POULSEUR",
    "name_clean": "Poulseur",
    "url": "https://nl.wikipedia.org/wiki/Station_Poulseur",
    "lat": 50.50887673010024,
    "lon": 5.578297408275148,
    "region": "WAL",
    "province": "WLG",
    "city": "62026"
  },
  {
    "name": "PROFONDSART",
    "name_clean": "Profondsart",
    "url": "https://nl.wikipedia.org/wiki/Station_Profondsart",
    "lat": 50.69913091614475,
    "lon": 4.545889645814896,
    "region": "WAL",
    "province": "WBR",
    "city": "25112"
  },
  {
    "name": "PRY",
    "name_clean": "Pry",
    "url": "https://nl.wikipedia.org/wiki/Station_Pry",
    "lat": 50.269327717785686,
    "lon": 4.429016605863126,
    "region": "WAL",
    "province": "WNA",
    "city": "93088"
  },
  {
    "name": "PUURS",
    "name_clean": "Puurs",
    "url": "https://nl.wikipedia.org/wiki/Station_Puurs",
    "lat": 51.07715501446895,
    "lon": 4.282700568437576,
    "region": "VLG",
    "province": "VAN",
    "city": "12041"
  },
  {
    "name": "PECROT",
    "name_clean": "Pécrot",
    "url": "https://nl.wikipedia.org/wiki/Station_Pécrot",
    "lat": 50.7783672775597,
    "lon": 4.651469439268112,
    "region": "WAL",
    "province": "WBR",
    "city": "25037"
  },
  {
    "name": "PERUWELZ",
    "name_clean": "Péruwelz",
    "url": "https://nl.wikipedia.org/wiki/Station_Péruwelz",
    "lat": 50.513514826114665,
    "lon": 3.5916703236193825,
    "region": "WAL",
    "province": "WHT",
    "city": "57064"
  },
  {
    "name": "QUAREGNON",
    "name_clean": "Quaregnon",
    "url": "https://nl.wikipedia.org/wiki/Station_Quaregnon",
    "lat": 50.449733668882665,
    "lon": 3.856380879878998,
    "region": "WAL",
    "province": "WHT",
    "city": "53065"
  },
  {
    "name": "QUIEVRAIN",
    "name_clean": "Quiévrain",
    "url": "https://nl.wikipedia.org/wiki/Station_Quiévrain",
    "lat": 50.41034443149207,
    "lon": 3.6865486300421253,
    "region": "WAL",
    "province": "WHT",
    "city": "53068"
  },
  {
    "name": "QUEVY",
    "name_clean": "Quévy",
    "url": "https://nl.wikipedia.org/wiki/Station_Quévy",
    "lat": 50.34136077996595,
    "lon": 3.9092713594436646,
    "region": "WAL",
    "province": "WHT",
    "city": "53084"
  },
  {
    "name": "REBAIX",
    "name_clean": "Rebaix",
    "url": "https://nl.wikipedia.org/wiki/Station_Rebaix",
    "lat": 50.66130303463083,
    "lon": 3.7937900884946885,
    "region": "WAL",
    "province": "WHT",
    "city": "51004"
  },
  {
    "name": "REMICOURT",
    "name_clean": "Remicourt",
    "url": "https://nl.wikipedia.org/wiki/Station_Remicourt",
    "lat": 50.67864970789797,
    "lon": 5.320724844932556,
    "region": "WAL",
    "province": "WLG",
    "city": "64063"
  },
  {
    "name": "RHISNES",
    "name_clean": "Rhisnes",
    "url": "https://nl.wikipedia.org/wiki/Station_Rhisnes",
    "lat": 50.49924395753672,
    "lon": 4.802127778530121,
    "region": "WAL",
    "province": "WNA",
    "city": "92141"
  },
  {
    "name": "RIVAGE",
    "name_clean": "Rivage",
    "url": "https://nl.wikipedia.org/wiki/Station_Rivage",
    "lat": 50.48604184663173,
    "lon": 5.585387796163559,
    "region": "WAL",
    "province": "WLG",
    "city": "62100"
  },
  {
    "name": "RIXENSART",
    "name_clean": "Rixensart",
    "url": "https://nl.wikipedia.org/wiki/Station_Rixensart",
    "lat": 50.71164073275641,
    "lon": 4.53335165977478,
    "region": "WAL",
    "province": "WBR",
    "city": "25091"
  },
  {
    "name": "ROESELARE",
    "name_clean": "Roeselare",
    "url": "https://nl.wikipedia.org/wiki/Station_Roeselare",
    "lat": 50.949028880667306,
    "lon": 3.1304141879081726,
    "region": "VLG",
    "province": "VWV",
    "city": "36015"
  },
  {
    "name": "RONET",
    "name_clean": "Ronet",
    "url": "https://nl.wikipedia.org/wiki/Station_Ronet",
    "lat": 50.458131516039735,
    "lon": 4.829264972534247,
    "region": "WAL",
    "province": "WNA",
    "city": "92094"
  },
  {
    "name": "RONSE/RENAIX",
    "name_clean": "Ronse",
    "url": "https://nl.wikipedia.org/wiki/Station_Ronse",
    "lat": 50.74225696562832,
    "lon": 3.6017802357673645,
    "region": "VLG",
    "province": "VOV",
    "city": "45041"
  },
  {
    "name": "ROUX",
    "name_clean": "Roux",
    "url": "https://nl.wikipedia.org/wiki/Station_Roux",
    "lat": 50.44311676363001,
    "lon": 4.393458366394043,
    "region": "WAL",
    "province": "WHT",
    "city": "52011"
  },
  {
    "name": "RUISBROEK",
    "name_clean": "Ruisbroek",
    "url": "https://nl.wikipedia.org/wiki/Station_Ruisbroek",
    "lat": 50.7910483905786,
    "lon": 4.2950239777565,
    "region": "VLG",
    "province": "VBR",
    "city": "23077"
  },
  {
    "name": "RUISBR.-SAUVEGARDE",
    "name_clean": "Ruisbroek-Sauvegarde",
    "url": "https://nl.wikipedia.org/wiki/Station_Ruisbroek-Sauvegarde",
    "lat": 51.08109727911135,
    "lon": 4.325884133577347,
    "region": "VLG",
    "province": "VAN",
    "city": "12041"
  },
  {
    "name": "ST-DENIS-BOVESSE",
    "name_clean": "Saint-Denis-Bovesse",
    "url": "https://nl.wikipedia.org/wiki/Station_Saint-Denis-Bovesse",
    "lat": 50.52136291383352,
    "lon": 4.768161624670029,
    "region": "WAL",
    "province": "WNA",
    "city": "92141"
  },
  {
    "name": "ST-GHISLAIN",
    "name_clean": "Saint-Ghislain",
    "url": "https://nl.wikipedia.org/wiki/Station_Saint-Ghislain",
    "lat": 50.44282637746833,
    "lon": 3.819194734096527,
    "region": "WAL",
    "province": "WHT",
    "city": "53070"
  },
  {
    "name": "SART-BERNARD",
    "name_clean": "Sart-Bernard",
    "url": "https://nl.wikipedia.org/wiki/Station_Sart-Bernard",
    "lat": 50.406484159193745,
    "lon": 4.949560761451721,
    "region": "WAL",
    "province": "WNA",
    "city": "92006"
  },
  {
    "name": "SCHAARBEEK/SCHAERBEEK",
    "name_clean": "Schaarbeek",
    "url": "https://nl.wikipedia.org/wiki/Station_Schaarbeek",
    "lat": 50.87806222155037,
    "lon": 4.379639625549316,
    "region": "BRU",
    "city": "21004"
  },
  {
    "name": "SCHELDEWINDEKE",
    "name_clean": "Scheldewindeke",
    "url": "https://nl.wikipedia.org/wiki/Station_Scheldewindeke",
    "lat": 50.93638221865141,
    "lon": 3.7782172858715057,
    "region": "VLG",
    "province": "VOV",
    "city": "44052"
  },
  {
    "name": "SCHELLE",
    "name_clean": "Schelle",
    "url": "https://nl.wikipedia.org/wiki/Station_Schelle",
    "lat": 51.12579744714191,
    "lon": 4.3401632847028395,
    "region": "VLG",
    "province": "VAN",
    "city": "11038"
  },
  {
    "name": "SCHELLEBELLE",
    "name_clean": "Schellebelle",
    "url": "https://nl.wikipedia.org/wiki/Station_Schellebelle",
    "lat": 51.00312499407521,
    "lon": 3.9220505506377776,
    "region": "VLG",
    "province": "VOV",
    "city": "42026"
  },
  {
    "name": "SCHENDELBEKE",
    "name_clean": "Schendelbeke",
    "url": "https://nl.wikipedia.org/wiki/Station_Schendelbeke",
    "lat": 50.79780617380263,
    "lon": 3.8994134954123183,
    "region": "VLG",
    "province": "VOV",
    "city": "41018"
  },
  {
    "name": "SCHOONAARDE",
    "name_clean": "Schoonaarde",
    "url": "https://nl.wikipedia.org/wiki/Station_Schoonaarde",
    "lat": 51.0032498207582,
    "lon": 4.0113092958927155,
    "region": "VLG",
    "province": "VOV",
    "city": "42006"
  },
  {
    "name": "SCHULEN",
    "name_clean": "Schulen",
    "url": "https://nl.wikipedia.org/wiki/Station_Schulen",
    "lat": 50.964025325585055,
    "lon": 5.185581743717194,
    "region": "VLG",
    "province": "VLI",
    "city": "71024"
  },
  {
    "name": "SCLAIGNEAUX",
    "name_clean": "Sclaigneaux",
    "url": "https://nl.wikipedia.org/wiki/Station_Sclaigneaux",
    "lat": 50.492109673345546,
    "lon": 5.026211122396035,
    "region": "WAL",
    "province": "WNA",
    "city": "92003"
  },
  {
    "name": "SCLESSIN",
    "name_clean": "Sclessin",
    "url": "https://nl.wikipedia.org/wiki/Station_Sclessin",
    "lat": 50.61072661720814,
    "lon": 5.55587075650692,
    "region": "WAL",
    "province": "WLG",
    "city": "62063"
  },
  {
    "name": "SERAING",
    "name_clean": "Seraing",
    "url": "https://nl.wikipedia.org/wiki/Station_Seraing",
    "lat": 50.608812,
    "lon": 5.513212,
    "region": "WAL",
    "province": "WLG",
    "city": "62096"
  },
  {
    "name": "SERSKAMP",
    "name_clean": "Serskamp",
    "url": "https://nl.wikipedia.org/wiki/Station_Serskamp",
    "lat": 50.98523218321767,
    "lon": 3.9583969877307936,
    "region": "VLG",
    "province": "VOV",
    "city": "42026"
  },
  {
    "name": "SILLY",
    "name_clean": "Silly",
    "url": "https://nl.wikipedia.org/wiki/Station_Silly",
    "lat": 50.66283450643882,
    "lon": 3.9358440041542053,
    "region": "WAL",
    "province": "WHT",
    "city": "55039"
  },
  {
    "name": "SIMONIS",
    "name_clean": "Simonis",
    "url": "https://nl.wikipedia.org/wiki/Station_Simonis",
    "lat": 50.863525,
    "lon": 4.331084,
    "region": "BRU",
    "city": "21011"
  },
  {
    "name": "SINAAI",
    "name_clean": "Sinaai",
    "url": "https://nl.wikipedia.org/wiki/Station_Sinaai",
    "lat": 51.14327268633723,
    "lon": 4.068006597784574,
    "region": "VLG",
    "province": "VOV",
    "city": "46021"
  },
  {
    "name": "BERCHEM-ST-AG.-BERCHEM",
    "name_clean": "Sint-Agatha-Berchem",
    "url": "https://nl.wikipedia.org/wiki/Station_Sint-Agatha-Berchem",
    "lat": 50.872765551013394,
    "lon": 4.289807081222534,
    "region": "BRU",
    "city": "21003"
  },
  {
    "name": "ST-DENIJS-BOEKEL",
    "name_clean": "Sint-Denijs-Boekel",
    "url": "https://nl.wikipedia.org/wiki/Station_Sint-Denijs-Boekel",
    "lat": 50.87432397849718,
    "lon": 3.6982827260660542,
    "region": "VLG",
    "province": "VOV",
    "city": "45065"
  },
  {
    "name": "ST-GEN-RODE/RHODE-ST-GEN",
    "name_clean": "Sint-Genesius-Rode",
    "url": "https://nl.wikipedia.org/wiki/Station_Sint-Genesius-Rode",
    "lat": 50.74794521696524,
    "lon": 4.361705034971237,
    "region": "VLG",
    "province": "VBR",
    "city": "23101"
  },
  {
    "name": "ST-GILLIS",
    "name_clean": "Sint-Gillis",
    "url": "https://nl.wikipedia.org/wiki/Station_Sint-Gillis",
    "lat": 51.021062603019814,
    "lon": 4.1186506872434165,
    "region": "VLG",
    "province": "VOV",
    "city": "42006"
  },
  {
    "name": "ST-JOB",
    "name_clean": "Sint-Job",
    "url": "https://nl.wikipedia.org/wiki/Station_Sint-Job",
    "lat": 50.79403502307362,
    "lon": 4.361840486526489,
    "region": "BRU",
    "city": "21016"
  },
  {
    "name": "ST-JORIS-WEERT",
    "name_clean": "Sint-Joris-Weert",
    "url": "https://nl.wikipedia.org/wiki/Station_Sint-Joris-Weert",
    "lat": 50.80067930815736,
    "lon": 4.651803681509023,
    "region": "VLG",
    "province": "VBR",
    "city": "24086"
  },
  {
    "name": "ST-KATELIJNE-WAVER",
    "name_clean": "Sint-Katelijne-Waver",
    "url": "https://nl.wikipedia.org/wiki/Station_Sint-Katelijne-Waver",
    "lat": 51.07006868085108,
    "lon": 4.495826741935275,
    "region": "VLG",
    "province": "VAN",
    "city": "12035"
  },
  {
    "name": "ST-MARIABURG",
    "name_clean": "Sint-Mariaburg",
    "url": "https://nl.wikipedia.org/wiki/Station_Sint-Mariaburg",
    "lat": 51.29123844587346,
    "lon": 4.434934705495834,
    "region": "VLG",
    "province": "VAN",
    "city": "11002"
  },
  {
    "name": "ST-MARTENS-BODEGEM",
    "name_clean": "Sint-Martens-Bodegem",
    "url": "https://nl.wikipedia.org/wiki/Station_Sint-Martens-Bodegem",
    "lat": 50.867272761298324,
    "lon": 4.205381870269775,
    "region": "VLG",
    "province": "VBR",
    "city": "23016"
  },
  {
    "name": "ST-NIKLAAS",
    "name_clean": "Sint-Niklaas",
    "url": "https://nl.wikipedia.org/wiki/Station_Sint-Niklaas",
    "lat": 51.17165985842926,
    "lon": 4.144399166107178,
    "region": "VLG",
    "province": "VOV",
    "city": "46021"
  },
  {
    "name": "ST-TRUIDEN",
    "name_clean": "Sint-Truiden",
    "url": "https://nl.wikipedia.org/wiki/Station_Sint-Truiden",
    "lat": 50.817490786938,
    "lon": 5.176409929990768,
    "region": "VLG",
    "province": "VLI",
    "city": "71053"
  },
  {
    "name": "SLEIDINGE",
    "name_clean": "Sleidinge",
    "url": "https://nl.wikipedia.org/wiki/Station_Sleidinge",
    "lat": 51.12625736781577,
    "lon": 3.667755895377695,
    "region": "VLG",
    "province": "VOV",
    "city": "44019"
  },
  {
    "name": "SOIGNIES",
    "name_clean": "Soignies",
    "url": "https://nl.wikipedia.org/wiki/Station_Soignies",
    "lat": 50.57323843742934,
    "lon": 4.069175273180008,
    "region": "WAL",
    "province": "WHT",
    "city": "55040"
  },
  {
    "name": "SOLRE-SUR-SAMBRE",
    "name_clean": "Solre-sur-Sambre",
    "url": "https://nl.wikipedia.org/wiki/Station_Solre-sur-Sambre",
    "lat": 50.3127576518036,
    "lon": 4.157601757811221,
    "region": "WAL",
    "province": "WHT",
    "city": "56022"
  },
  {
    "name": "SPA",
    "name_clean": "Spa",
    "url": "https://nl.wikipedia.org/wiki/Station_Spa",
    "lat": 50.49036267338533,
    "lon": 5.855891837510853,
    "region": "WAL",
    "province": "WLG",
    "city": "63072"
  },
  {
    "name": "SPA-GERONSTERE",
    "name_clean": "Spa-Géronstère",
    "url": "https://nl.wikipedia.org/wiki/Station_Spa-Géronstère",
    "lat": 50.48931584317159,
    "lon": 5.866620093584061,
    "region": "WAL",
    "province": "WLG",
    "city": "63072"
  },
  {
    "name": "STATTE",
    "name_clean": "Statte",
    "url": "https://nl.wikipedia.org/wiki/Station_Statte",
    "lat": 50.52783246558487,
    "lon": 5.221032500267029,
    "region": "WAL",
    "province": "WLG",
    "city": "61031"
  },
  {
    "name": "STOCKEM",
    "name_clean": "Stockem",
    "url": "https://nl.wikipedia.org/wiki/Station_Stockem",
    "lat": 49.69100086288382,
    "lon": 5.767850202148566,
    "region": "WAL",
    "province": "WLX",
    "city": "81001"
  },
  {
    "name": "SY",
    "name_clean": "Sy",
    "url": "https://nl.wikipedia.org/wiki/Station_Sy",
    "lat": 50.402957390376685,
    "lon": 5.523879379034042,
    "region": "WAL",
    "province": "WLG",
    "city": "61019"
  },
  {
    "name": "TAMINES",
    "name_clean": "Tamines",
    "url": "https://nl.wikipedia.org/wiki/Station_Tamines",
    "lat": 50.432611430142096,
    "lon": 4.6096698967051,
    "region": "WAL",
    "province": "WNA",
    "city": "92137"
  },
  {
    "name": "TEMSE",
    "name_clean": "Temse",
    "url": "https://nl.wikipedia.org/wiki/Station_Temse",
    "lat": 51.12609817875482,
    "lon": 4.221322238445282,
    "region": "VLG",
    "province": "VOV",
    "city": "46025"
  },
  {
    "name": "TERHAGEN",
    "name_clean": "Terhagen",
    "url": "https://nl.wikipedia.org/wiki/Station_Terhagen",
    "lat": 50.90130916666506,
    "lon": 3.8959595561027527,
    "region": "VLG",
    "province": "VOV",
    "city": "41027"
  },
  {
    "name": "TERNAT",
    "name_clean": "Ternat",
    "url": "https://nl.wikipedia.org/wiki/Station_Ternat",
    "lat": 50.874513967360414,
    "lon": 4.165850132703781,
    "region": "VLG",
    "province": "VBR",
    "city": "23086"
  },
  {
    "name": "TESTELT",
    "name_clean": "Testelt",
    "url": "https://nl.wikipedia.org/wiki/Station_Testelt",
    "lat": 51.00983862647778,
    "lon": 4.94677442158013,
    "region": "VLG",
    "province": "VBR",
    "city": "24134"
  },
  {
    "name": "THEUX",
    "name_clean": "Theux",
    "url": "https://nl.wikipedia.org/wiki/Station_Theux",
    "lat": 50.536196039111694,
    "lon": 5.815072059631348,
    "region": "WAL",
    "province": "WLG",
    "city": "63076"
  },
  {
    "name": "THIEU",
    "name_clean": "Thieu",
    "url": "https://nl.wikipedia.org/wiki/Station_Thieu",
    "lat": 50.4697543545622,
    "lon": 4.098510486403484,
    "region": "WAL",
    "province": "WHT",
    "city": "55035"
  },
  {
    "name": "THUIN",
    "name_clean": "Thuin",
    "url": "https://nl.wikipedia.org/wiki/Station_Thuin",
    "lat": 50.34258390539215,
    "lon": 4.288191781857449,
    "region": "WAL",
    "province": "WHT",
    "city": "56078"
  },
  {
    "name": "THULIN",
    "name_clean": "Thulin",
    "url": "https://nl.wikipedia.org/wiki/Station_Thulin",
    "lat": 50.42328,
    "lon": 3.745092,
    "region": "WAL",
    "province": "WHT",
    "city": "53039"
  },
  {
    "name": "TIELEN",
    "name_clean": "Tielen",
    "url": "https://nl.wikipedia.org/wiki/Station_Tielen",
    "lat": 51.24204775503691,
    "lon": 4.894467066136826,
    "region": "VLG",
    "province": "VAN",
    "city": "13017"
  },
  {
    "name": "TIELT",
    "name_clean": "Tielt",
    "url": "https://nl.wikipedia.org/wiki/Station_Tielt",
    "lat": 50.990436421743155,
    "lon": 3.329259753227234,
    "region": "VLG",
    "province": "VWV",
    "city": "37015"
  },
  {
    "name": "TIENEN",
    "name_clean": "Tienen",
    "url": "https://nl.wikipedia.org/wiki/Station_Tienen",
    "lat": 50.808068084718215,
    "lon": 4.9258956273477,
    "region": "VLG",
    "province": "VBR",
    "city": "24107"
  },
  {
    "name": "TILFF",
    "name_clean": "Tilff",
    "url": "https://nl.wikipedia.org/wiki/Station_Tilff",
    "lat": 50.570287444469,
    "lon": 5.583205613133941,
    "region": "WAL",
    "province": "WLG",
    "city": "62032"
  },
  {
    "name": "TILLY",
    "name_clean": "Tilly",
    "url": "https://nl.wikipedia.org/wiki/Station_Tilly",
    "lat": 50.55819886142132,
    "lon": 4.5526521027246645,
    "region": "WAL",
    "province": "WBR",
    "city": "25107"
  },
  {
    "name": "TOLLEMBEEK",
    "name_clean": "Tollembeek",
    "url": "https://nl.wikipedia.org/wiki/Station_Tollembeek",
    "lat": 50.735071355005346,
    "lon": 3.9938448564469127,
    "region": "VLG",
    "province": "VBR",
    "city": "23023"
  },
  {
    "name": "TONGEREN",
    "name_clean": "Tongeren",
    "url": "https://nl.wikipedia.org/wiki/Station_Tongeren",
    "lat": 50.78393174564868,
    "lon": 5.473560212042685,
    "region": "VLG",
    "province": "VLI",
    "city": "73083"
  },
  {
    "name": "TORHOUT",
    "name_clean": "Torhout",
    "url": "https://nl.wikipedia.org/wiki/Station_Torhout",
    "lat": 51.06481799648714,
    "lon": 3.1055715680122375,
    "region": "VLG",
    "province": "VWV",
    "city": "31033"
  },
  {
    "name": "TOUR ET TAXIS/THURN EN TAXIS",
    "name_clean": "Thurn en Taxis",
    "url": "https://nl.wikipedia.org/wiki/Station_Thurn_en_Taxis",
    "lat": 50.872542128128636,
    "lon": 4.341895580291748,
    "region": "BRU",
    "city": "21004"
  },
  {
    "name": "TOURNAI",
    "name_clean": "Tournai",
    "url": "https://nl.wikipedia.org/wiki/Station_Tournai",
    "lat": 50.61278695427139,
    "lon": 3.3966878056526184,
    "region": "WAL",
    "province": "WHT",
    "city": "57081"
  },
  {
    "name": "TROIS-PONTS",
    "name_clean": "Trois-Ponts",
    "url": "https://nl.wikipedia.org/wiki/Station_Trois-Ponts",
    "lat": 50.3691789979356,
    "lon": 5.873293300481123,
    "region": "WAL",
    "province": "WLG",
    "city": "63086"
  },
  {
    "name": "TROOZ",
    "name_clean": "Trooz",
    "url": "https://nl.wikipedia.org/wiki/Station_Trooz",
    "lat": 50.57334198128324,
    "lon": 5.6884766583342525,
    "region": "WAL",
    "province": "WLG",
    "city": "62122"
  },
  {
    "name": "TUBIZE",
    "name_clean": "Tubize",
    "url": "https://nl.wikipedia.org/wiki/Station_Tubize",
    "lat": 50.691784782795985,
    "lon": 4.20563500457024,
    "region": "WAL",
    "province": "WBR",
    "city": "25105"
  },
  {
    "name": "TURNHOUT",
    "name_clean": "Turnhout",
    "url": "https://nl.wikipedia.org/wiki/Station_Turnhout",
    "lat": 51.322039781659846,
    "lon": 4.937859828539558,
    "region": "VLG",
    "province": "VAN",
    "city": "13040"
  },
  {
    "name": "UCCLE/UKKEL-CALEVOET",
    "name_clean": "Ukkel-Kalevoet",
    "url": "https://nl.wikipedia.org/wiki/Station_Ukkel-Kalevoet",
    "lat": 50.7917181317503,
    "lon": 4.332000911235809,
    "region": "BRU",
    "city": "21016"
  },
  {
    "name": "UCCLE/UKKEL-STALLE",
    "name_clean": "Ukkel-Stalle",
    "url": "https://nl.wikipedia.org/wiki/Station_Ukkel-Stalle",
    "lat": 50.80245974031273,
    "lon": 4.323872521207363,
    "region": "BRU",
    "city": "21016"
  },
  {
    "name": "VELTEM",
    "name_clean": "Veltem",
    "url": "https://nl.wikipedia.org/wiki/Station_Veltem",
    "lat": 50.90034875037752,
    "lon": 4.632685710998771,
    "region": "VLG",
    "province": "VBR",
    "city": "24038"
  },
  {
    "name": "VERTRIJK",
    "name_clean": "Vertrijk",
    "url": "https://nl.wikipedia.org/wiki/Station_Vertrijk",
    "lat": 50.835919314741446,
    "lon": 4.835699647665024,
    "region": "VLG",
    "province": "VBR",
    "city": "24016"
  },
  {
    "name": "VERVIERS-CENTRAL",
    "name_clean": "Verviers-Central",
    "url": "https://nl.wikipedia.org/wiki/Station_Verviers-Central",
    "lat": 50.58816338553617,
    "lon": 5.854999423027039,
    "region": "WAL",
    "province": "WLG",
    "city": "63079"
  },
  {
    "name": "VERVIERS-PALAIS",
    "name_clean": "Verviers-Palais",
    "url": "https://nl.wikipedia.org/wiki/Station_Verviers-Palais",
    "lat": 50.590888810983465,
    "lon": 5.864568203687668,
    "region": "WAL",
    "province": "WLG",
    "city": "63079"
  },
  {
    "name": "VEURNE",
    "name_clean": "Veurne",
    "url": "https://nl.wikipedia.org/wiki/Station_Veurne",
    "lat": 51.073774459353224,
    "lon": 2.6700036227703094,
    "region": "VLG",
    "province": "VWV",
    "city": "38025"
  },
  {
    "name": "VIANE-MOERBEKE",
    "name_clean": "Viane-Moerbeke",
    "url": "https://nl.wikipedia.org/wiki/Station_Viane-Moerbeke",
    "lat": 50.75184673883671,
    "lon": 3.9171141386032104,
    "region": "VLG",
    "province": "VOV",
    "city": "41018"
  },
  {
    "name": "VICHTE",
    "name_clean": "Vichte",
    "url": "https://nl.wikipedia.org/wiki/Station_Vichte",
    "lat": 50.833641768553726,
    "lon": 3.3918799459934235,
    "region": "VLG",
    "province": "VWV",
    "city": "34002"
  },
  {
    "name": "VIELSALM",
    "name_clean": "Vielsalm",
    "url": "https://nl.wikipedia.org/wiki/Station_Vielsalm",
    "lat": 50.27874488244606,
    "lon": 5.909579694271088,
    "region": "WAL",
    "province": "WLX",
    "city": "82032"
  },
  {
    "name": "VIJFHUIZEN",
    "name_clean": "Vijfhuizen",
    "url": "https://nl.wikipedia.org/wiki/Station_Vijfhuizen",
    "lat": 50.94347072208788,
    "lon": 3.983394205570221,
    "region": "VLG",
    "province": "VOV",
    "city": "41082"
  },
  {
    "name": "VILLE-POMMEROEUL",
    "name_clean": "Ville-Pommeroeul",
    "url": "https://nl.wikipedia.org/wiki/Station_Ville-Pommeroeul",
    "lat": 50.46511601938089,
    "lon": 3.723136782646179,
    "region": "WAL",
    "province": "WHT",
    "city": "51009"
  },
  {
    "name": "VILLERS-LA-VILLE",
    "name_clean": "Villers-la-Ville",
    "url": "https://nl.wikipedia.org/wiki/Station_Villers-la-Ville",
    "lat": 50.577873782458845,
    "lon": 4.534196501529209,
    "region": "WAL",
    "province": "WBR",
    "city": "25107"
  },
  {
    "name": "VILVOORDE",
    "name_clean": "Vilvoorde",
    "url": "https://nl.wikipedia.org/wiki/Station_Vilvoorde",
    "lat": 50.924598081704794,
    "lon": 4.4326945490217895,
    "region": "VLG",
    "province": "VBR",
    "city": "23088"
  },
  {
    "name": "VIRTON",
    "name_clean": "Virton",
    "url": "https://nl.wikipedia.org/wiki/Station_Virton",
    "lat": 49.56056882296359,
    "lon": 5.5195008451152034,
    "region": "WAL",
    "province": "WLX",
    "city": "85045"
  },
  {
    "name": "VISE",
    "name_clean": "Visé",
    "url": "https://nl.wikipedia.org/wiki/Station_Visé",
    "lat": 50.73780805598555,
    "lon": 5.692366361618042,
    "region": "WAL",
    "province": "WLG",
    "city": "62108"
  },
  {
    "name": "VIVILLE",
    "name_clean": "Viville",
    "url": "https://nl.wikipedia.org/wiki/Station_Viville",
    "lat": 49.68812890728054,
    "lon": 5.785996913909912,
    "region": "WAL",
    "province": "WLX",
    "city": "81001"
  },
  {
    "name": "VOROUX",
    "name_clean": "Voroux",
    "url": "https://nl.wikipedia.org/wiki/Station_Voroux",
    "lat": 50.66084973315053,
    "lon": 5.430079316175011,
    "region": "WAL",
    "province": "WLG",
    "city": "64025"
  },
  {
    "name": "FOREST-EST/VORST-OOST",
    "name_clean": "Vorst-Oost",
    "url": "https://nl.wikipedia.org/wiki/Station_Vorst-Oost",
    "lat": 50.80947769962828,
    "lon": 4.320615064853882,
    "region": "BRU",
    "city": "21007"
  },
  {
    "name": "FOREST-MIDI/VORST-ZUID",
    "name_clean": "Vorst-Zuid",
    "url": "https://nl.wikipedia.org/wiki/Station_Vorst-Zuid",
    "lat": 50.80793226440991,
    "lon": 4.3086884915828705,
    "region": "BRU",
    "city": "21007"
  },
  {
    "name": "WAARSCHOOT",
    "name_clean": "Waarschoot",
    "url": "https://nl.wikipedia.org/wiki/Station_Waarschoot",
    "lat": 51.154259018137985,
    "lon": 3.6153650754804403,
    "region": "VLG",
    "province": "VOV",
    "city": "44085"
  },
  {
    "name": "WALCOURT",
    "name_clean": "Walcourt",
    "url": "https://nl.wikipedia.org/wiki/Station_Walcourt",
    "lat": 50.259278447648384,
    "lon": 4.436202049255371,
    "region": "WAL",
    "province": "WNA",
    "city": "93088"
  },
  {
    "name": "WAREGEM",
    "name_clean": "Waregem",
    "url": "https://nl.wikipedia.org/wiki/Station_Waregem",
    "lat": 50.89156055038924,
    "lon": 3.424537181854248,
    "region": "VLG",
    "province": "VWV",
    "city": "34040"
  },
  {
    "name": "WAREMME",
    "name_clean": "Waremme",
    "url": "https://nl.wikipedia.org/wiki/Station_Waremme",
    "lat": 50.69450857622317,
    "lon": 5.249403779195859,
    "region": "WAL",
    "province": "WLG",
    "city": "64074"
  },
  {
    "name": "WATERLOO",
    "name_clean": "Waterloo",
    "url": "https://nl.wikipedia.org/wiki/Station_Waterloo",
    "lat": 50.715068055649525,
    "lon": 4.383497983217239,
    "region": "WAL",
    "province": "WBR",
    "city": "25110"
  },
  {
    "name": "WATERMAEL/WATERMAAL",
    "name_clean": "Watermaal",
    "url": "https://nl.wikipedia.org/wiki/Station_Watermaal",
    "lat": 50.80938779439985,
    "lon": 4.399879591436388,
    "region": "BRU",
    "city": "21017"
  },
  {
    "name": "WAVRE",
    "name_clean": "Wavre",
    "url": "https://nl.wikipedia.org/wiki/Station_Wavre",
    "lat": 50.71605051998487,
    "lon": 4.605452120304108,
    "region": "WAL",
    "province": "WBR",
    "city": "25112"
  },
  {
    "name": "WEERDE",
    "name_clean": "Weerde",
    "url": "https://nl.wikipedia.org/wiki/Station_Weerde",
    "lat": 50.978030024377894,
    "lon": 4.472028512897509,
    "region": "VLG",
    "province": "VBR",
    "city": "23096"
  },
  {
    "name": "WELKENRAEDT",
    "name_clean": "Welkenraedt",
    "url": "https://nl.wikipedia.org/wiki/Station_Welkenraedt",
    "lat": 50.65966883544155,
    "lon": 5.9755523448639,
    "region": "WAL",
    "province": "WLG",
    "city": "63084"
  },
  {
    "name": "WELLE",
    "name_clean": "Welle",
    "url": "https://nl.wikipedia.org/wiki/Station_Welle",
    "lat": 50.90312924617946,
    "lon": 4.050985872745514,
    "region": "VLG",
    "province": "VOV",
    "city": "41011"
  },
  {
    "name": "WERVIK",
    "name_clean": "Wervik",
    "url": "https://nl.wikipedia.org/wiki/Station_Wervik",
    "lat": 50.781701861836765,
    "lon": 3.0464641161930786,
    "region": "VLG",
    "province": "VWV",
    "city": "33029"
  },
  {
    "name": "WESPELAAR-TILDONK",
    "name_clean": "Wespelaar-Tildonk",
    "url": "https://nl.wikipedia.org/wiki/Station_Wespelaar-Tildonk",
    "lat": 50.958290719952316,
    "lon": 4.6381576359272,
    "region": "VLG",
    "province": "VBR",
    "city": "24033"
  },
  {
    "name": "WETTEREN",
    "name_clean": "Wetteren",
    "url": "https://nl.wikipedia.org/wiki/Station_Wetteren",
    "lat": 51.001659648294144,
    "lon": 3.8823806502971365,
    "region": "VLG",
    "province": "VOV",
    "city": "42025"
  },
  {
    "name": "WEVELGEM",
    "name_clean": "Wevelgem",
    "url": "https://nl.wikipedia.org/wiki/Station_Wevelgem",
    "lat": 50.811003941270414,
    "lon": 3.1824550558189912,
    "region": "VLG",
    "province": "VWV",
    "city": "34041"
  },
  {
    "name": "WEZEMAAL",
    "name_clean": "Wezemaal",
    "url": "https://nl.wikipedia.org/wiki/Station_Wezemaal",
    "lat": 50.9559617054157,
    "lon": 4.74759042263031,
    "region": "VLG",
    "province": "VBR",
    "city": "24094"
  },
  {
    "name": "WICHELEN",
    "name_clean": "Wichelen",
    "url": "https://nl.wikipedia.org/wiki/Station_Wichelen",
    "lat": 51.00181045528532,
    "lon": 3.9699224920653933,
    "region": "VLG",
    "province": "VOV",
    "city": "42026"
  },
  {
    "name": "WIJGMAAL",
    "name_clean": "Wijgmaal",
    "url": "https://nl.wikipedia.org/wiki/Station_Wijgmaal",
    "lat": 50.92296056793062,
    "lon": 4.701301472327032,
    "region": "VLG",
    "province": "VBR",
    "city": "24062"
  },
  {
    "name": "WILDERT",
    "name_clean": "Wildert",
    "url": "https://nl.wikipedia.org/wiki/Station_Wildert",
    "lat": 51.42756524748786,
    "lon": 4.463552534580231,
    "region": "VLG",
    "province": "VAN",
    "city": "11016"
  },
  {
    "name": "WILLEBROEK",
    "name_clean": "Willebroek",
    "url": "https://nl.wikipedia.org/wiki/Station_Willebroek",
    "lat": 51.0665420075387,
    "lon": 4.355132625656097,
    "region": "VLG",
    "province": "VAN",
    "city": "12040"
  },
  {
    "name": "WOLFSTEE",
    "name_clean": "Wolfstee",
    "url": "https://nl.wikipedia.org/wiki/Station_Wolfstee",
    "lat": 51.16848046448389,
    "lon": 4.78460356593132,
    "region": "VLG",
    "province": "VAN",
    "city": "13010"
  },
  {
    "name": "WONDELGEM",
    "name_clean": "Wondelgem",
    "url": "https://nl.wikipedia.org/wiki/Station_Wondelgem",
    "lat": 51.089153485144294,
    "lon": 3.7194715440273285,
    "region": "VLG",
    "province": "VOV",
    "city": "44021"
  },
  {
    "name": "YVES-GOMEZEE",
    "name_clean": "Yves-Gomezée",
    "url": "https://nl.wikipedia.org/wiki/Station_Yves-Gomezée",
    "lat": 50.23697686648056,
    "lon": 4.500619322061539,
    "region": "WAL",
    "province": "WNA",
    "city": "93088"
  },
  {
    "name": "YVOIR",
    "name_clean": "Yvoir",
    "url": "https://nl.wikipedia.org/wiki/Station_Yvoir",
    "lat": 50.32078197585764,
    "lon": 4.878585487604141,
    "region": "WAL",
    "province": "WNA",
    "city": "91141"
  },
  {
    "name": "ZANDBERGEN",
    "name_clean": "Zandbergen",
    "url": "https://nl.wikipedia.org/wiki/Station_Zandbergen",
    "lat": 50.807000595599845,
    "lon": 3.9577598834323453,
    "region": "VLG",
    "province": "VOV",
    "city": "41018"
  },
  {
    "name": "ZAVENTEM",
    "name_clean": "Zaventem",
    "url": "https://nl.wikipedia.org/wiki/Station_Zaventem",
    "lat": 50.88516891839885,
    "lon": 4.471047967672348,
    "region": "VLG",
    "province": "VBR",
    "city": "23094"
  },
  {
    "name": "ZEDELGEM",
    "name_clean": "Zedelgem",
    "url": "https://nl.wikipedia.org/wiki/Station_Zedelgem",
    "lat": 51.12666243768794,
    "lon": 3.1638115990239157,
    "region": "VLG",
    "province": "VWV",
    "city": "31040"
  },
  {
    "name": "ZEEBRUGGE-DORP",
    "name_clean": "Zeebrugge-Dorp",
    "url": "https://nl.wikipedia.org/wiki/Station_Zeebrugge-Dorp",
    "lat": 51.326458841988035,
    "lon": 3.195117201223411,
    "region": "VLG",
    "province": "VWV",
    "city": "31005"
  },
  {
    "name": "ZEEBRUGGE-STRAND",
    "name_clean": "Zeebrugge-Strand",
    "url": "https://nl.wikipedia.org/wiki/Station_Zeebrugge-Strand",
    "lat": 51.33026891223646,
    "lon": 3.1842099130153656,
    "region": "VLG",
    "province": "VWV",
    "city": "31005"
  },
  {
    "name": "ZELE",
    "name_clean": "Zele",
    "url": "https://nl.wikipedia.org/wiki/Station_Zele",
    "lat": 51.072935180583556,
    "lon": 4.042326360940933,
    "region": "VLG",
    "province": "VOV",
    "city": "42028"
  },
  {
    "name": "ZELLIK",
    "name_clean": "Zellik",
    "url": "https://nl.wikipedia.org/wiki/Station_Zellik",
    "lat": 50.889919898788875,
    "lon": 4.274840452477633,
    "region": "VLG",
    "province": "VBR",
    "city": "23002"
  },
  {
    "name": "ZICHEM",
    "name_clean": "Zichem",
    "url": "https://nl.wikipedia.org/wiki/Station_Zichem",
    "lat": 51.0062689047594,
    "lon": 4.988380961971302,
    "region": "VLG",
    "province": "VBR",
    "city": "24134"
  },
  {
    "name": "ZINGEM",
    "name_clean": "Zingem",
    "url": "https://nl.wikipedia.org/wiki/Station_Zingem",
    "lat": 50.908016551872066,
    "lon": 3.6465007066726685,
    "region": "VLG",
    "province": "VOV",
    "city": "45068"
  },
  {
    "name": "ZOLDER",
    "name_clean": "Zolder",
    "url": "https://nl.wikipedia.org/wiki/Station_Zolder",
    "lat": 51.03354949730165,
    "lon": 5.329782664775848,
    "region": "VLG",
    "province": "VLI",
    "city": "71070"
  },
  {
    "name": "ZONHOVEN",
    "name_clean": "Zonhoven",
    "url": "https://nl.wikipedia.org/wiki/Station_Zonhoven",
    "lat": 50.98987926313181,
    "lon": 5.348862261430668,
    "region": "VLG",
    "province": "VLI",
    "city": "71066"
  },
  {
    "name": "ZOTTEGEM",
    "name_clean": "Zottegem",
    "url": "https://nl.wikipedia.org/wiki/Station_Zottegem",
    "lat": 50.868828412126035,
    "lon": 3.8141977787017822,
    "region": "VLG",
    "province": "VOV",
    "city": "41081"
  },
  {
    "name": "ZWIJNDRECHT",
    "name_clean": "Zwijndrecht",
    "url": "https://nl.wikipedia.org/wiki/Station_Zwijndrecht",
    "lat": 51.21414984344106,
    "lon": 4.329926915243277,
    "region": "VLG",
    "province": "VAN",
    "city": "11056"
  }
]
